[{"n":"1","lon":36.938391476870000,"lat":50.295151744070000,"addr":"Відділення №1: вул. Дзержинського, 17","city":"Вовчанськ"},{"n":"1","lon":31.337450000000000,"lat":47.569797000000000,"addr":"Відділення №1: просп. Жовтневої революції, 48а","city":"Вознесенськ"},{"n":"1","lon":25.776744000000000,"lat":49.664767000000000,"addr":"Відділення №1: вул. Чехова, 7","city":"Збараж"},{"n":"1","lon":34.838939397859000,"lat":50.901240531835000,"addr":"Відділення №1: вул. Лінійна, 15","city":"Суми"},{"n":"1","lon":33.909896700000000,"lat":51.674417300000000,"addr":"Відділення №1: вул. Терещенків, 45","city":"Глухів (Сумська обл.)"},{"n":"1","lon":32.536945000000000,"lat":46.536647000000000,"addr":"Відділення №1: вул. Карла Маркса, 126/1","city":"Гола Пристань"},{"n":"1","lon":30.630949000000000,"lat":46.502211000000000,"addr":"Відділення №1: Ленінградське шосе, 27","city":"Одеса"},{"n":"1","lon":32.036002000000000,"lat":49.428447000000000,"addr":"Відділення №1: вул. Хоменка, 15","city":"Черкаси"},{"n":"1","lon":31.168631315231000,"lat":47.825048536001000,"addr":"Відділення: бульв. Шевченка, 14","city":"Южноукраїнськ"},{"n":"1","lon":24.440516270000000,"lat":48.348146980000000,"addr":"Відділення №1: участок Центр (навпроти Церкви)","city":"Поляниця (Буковель)"},{"n":"1","lon":36.553761363029000,"lat":49.844403393064000,"addr":"Відділення № 1: вул. Петровського, 1ж","city":"Новопокровка (Харківська обл.)"},{"n":"1","lon":24.621333000000000,"lat":51.185851000000000,"addr":"Відділення № 1: вул. Жовтнева, 17","city":"Люблинець"},{"n":"1","lon":30.132383580101000,"lat":49.031483052726000,"addr":"Відділення №1: вул. Пархоменка, 1","city":"Соколівка"},{"n":"1","lon":34.820785000000000,"lat":47.456566000000000,"addr":"Відділення №1: вул. Кірова, 87","city":"Благовіщенка"},{"n":"1","lon":24.633045230000000,"lat":49.252405220000000,"addr":"Відділення № 1:вул. Січових Стрільців,  4а","city":"Бурштин"},{"n":"1","lon":38.500023000000000,"lat":49.342719000000000,"addr":"Відділення №1: вул. Радянська, 10а","city":"Містки (Сватівський р-н)"},{"n":"1","lon":30.862001000000000,"lat":46.567132000000000,"addr":"Відділення № 1: вул. Семенова, 55","city":"Фонтанка"},{"n":"1","lon":28.604312000000000,"lat":49.928930000000000,"addr":"Відділення №1: вул. Червоний Промінь, 2а","city":"Гришківці"},{"n":"1","lon":32.938663959503000,"lat":50.267433219839000,"addr":"Відділення: вул. Леніна, 39","city":"Чорнухи (Полтавська обл.)"},{"n":"1","lon":25.986915000000000,"lat":48.269907000000000,"addr":"Відділення №1: вул. Руська, 248о","city":"Чернівці"},{"n":"1","lon":25.795212000000000,"lat":49.024292000000000,"addr":"Відділення №1: вул. Залізнична, 87","city":"Чортків"},{"n":"1","lon":32.441886663437000,"lat":50.117207244123000,"addr":"Відділення №1: пров. Піонерський, 6","city":"Гребінка (Полтавська обл.)"},{"n":"1","lon":36.688198000000000,"lat":49.833151000000000,"addr":"Відділення: вул. Леонова, 4","city":"Чугуїв"},{"n":"1","lon":32.690500000000000,"lat":49.786710000000000,"addr":"Відділення №1: вул. Мічуріна, 1","city":"Оржиця"},{"n":"1","lon":33.728643193000000,"lat":49.790925203195000,"addr":"Відділення №1: вул. Шевченка, 75","city":"Велика Багачка"},{"n":"1","lon":34.532464742661000,"lat":49.824321281107000,"addr":"Відділення №1: вул. Леніна, 58/1","city":"Диканька"},{"n":"1","lon":33.820034000000000,"lat":49.917407000000000,"addr":"Відділення №1: вул. Горєва, 17","city":"Гоголеве (Полтавська обл.)"},{"n":"1","lon":27.056777000000000,"lat":50.175300000000000,"addr":"Відділення №1: вул. Валі Котика, 33","city":"Шепетівка"},{"n":"1","lon":28.980019000000000,"lat":48.592587000000000,"addr":"Відділення №1: вул. Леніна, 43","city":"Кирнасівка"},{"n":"1","lon":33.481522000000000,"lat":51.867459000000000,"addr":"Відділення №1: вул. Леніна, 28","city":"Шостка"},{"n":"1","lon":39.232600900000000,"lat":48.738956000000000,"addr":"Відділення: вул. Дружби, 24","city":"Щастя"},{"n":"1","lon":31.107904000000000,"lat":46.618579000000000,"addr":"Відділення: вул. Приморська, 19б (Ринок \"Приморський\")","city":"Южне"},{"n":"1","lon":24.259761000000000,"lat":50.296005000000000,"addr":"Відділення №1: вул. Кривоноса, 4","city":"Соснівка (Львівська обл.)"},{"n":"1","lon":31.920220730000000,"lat":49.411958970000000,"addr":"Відділення №1: вул. Шраменка, 49/1","city":"Руська Поляна"},{"n":"1","lon":35.309789200000000,"lat":48.733334510000000,"addr":"Відділення №1: вул. Гагаріна, 13","city":"Гвардійське (Дніпропетровськ)"},{"n":"1","lon":24.387991000000000,"lat":50.207093000000000,"addr":"Відділення №1: вул. Озерна, 1","city":"Добротвір"},{"n":"1","lon":33.963801000000000,"lat":50.983680000000000,"addr":"Відділення № 1: вул. Кооперативна, 4","city":"Терни"},{"n":"1","lon":23.343514240000000,"lat":49.233551540000000,"addr":"Відділення №1: вул. Зарічна, 9","city":"Східниця"},{"n":"1","lon":23.578806000000000,"lat":49.933060000000000,"addr":"Відділення: вул. Ів. Мазепи, 2","city":"Новояворівськ"},{"n":"1","lon":23.540478000000000,"lat":49.308705000000000,"addr":"Відділення №1: вул. Грушевського, 1а","city":"Стебник"},{"n":"1","lon":35.369500000000000,"lat":46.374200000000000,"addr":"Відділення №1: вул. Петровського, 28а","city":"Кирилівка(Якимівський р-н)"},{"n":"1","lon":23.486821000000000,"lat":49.652859000000000,"addr":"Відділення №1: вул. Відродження, 1","city":"Рудки"},{"n":"1","lon":34.899603000000000,"lat":47.015641000000000,"addr":"Відділення №1: вул. Московська, 21","city":"Веселе"},{"n":"1","lon":34.376571000000000,"lat":46.847885000000000,"addr":"Відділення №1: вул. Леніна, 6","city":"Нижні Сірогози"},{"n":"1","lon":29.496272000000000,"lat":48.196428000000000,"addr":"Відділення №1: вул. 1-го Травня, 26","city":"Ольгопіль"},{"n":"1","lon":25.498660000000000,"lat":50.004360000000000,"addr":"Відділення №1: вул. Ярослава Мудрого, 54а","city":"Почаїв"},{"n":"1","lon":34.550615940000000,"lat":46.712737430000000,"addr":"Відділення №1: вул. Щорса, 9","city":"Іванівка (Херсонська обл.)"},{"n":"1","lon":22.953349390000000,"lat":49.800307770000000,"addr":"Відділення №1: вул. Дружби, 212","city":"Шегині"},{"n":"1","lon":35.634119500000000,"lat":46.724078300000000,"addr":"Відділення №1: вул. Калініна, 79а (ТОЦ \"Барвінок\")","city":"Приазовське"},{"n":"1","lon":24.306974000000000,"lat":49.901941000000000,"addr":"Відділення №1: вул. Незалежності, 1","city":"Новий Яричів"},{"n":"1","lon":24.729639000000000,"lat":49.125051900000000,"addr":"ВІдділення №1: вул. Коновальця, 4а (навпроти Укрпошти)","city":"Галич"},{"n":"1","lon":36.383309662342000,"lat":50.079774826525000,"addr":"Відділення №1: вул. Кірова, 24/2","city":"Циркуни"},{"n":"1","lon":24.600534000000000,"lat":49.421471000000000,"addr":"Відділення: вул. Галицька, 126 (200 м. від заправки ОККО у напрямку Львова)","city":"Рогатин"},{"n":"1","lon":24.066387000000000,"lat":49.876997000000000,"addr":"Відділення №1: вул. Нова, 20а","city":"Малехів"},{"n":"1","lon":23.913322720000000,"lat":48.934802510000000,"addr":"Відділення №1: вул. Данила Галицького, 48","city":"Вигода (Івано-Франківська обл)"},{"n":"1","lon":23.981922900000000,"lat":48.976637200000000,"addr":"Відділення №1: вул. Міцкевича, 67","city":"Долина"},{"n":"1","lon":25.767855000000000,"lat":48.355207000000000,"addr":"Відділення №1: вул. Заводська, 28","city":"Лужани"},{"n":"1","lon":28.373648000000000,"lat":49.191362000000000,"addr":"Відділення №1: вул. Мічуріна, 28","city":"Агрономічне"},{"n":"1","lon":32.721924000000000,"lat":48.794551000000000,"addr":"Відділення №1: пл. Перемоги, 7","city":"Дмитрівка (Знам'янcький р-н Кіровоградська обл.)"},{"n":"1","lon":32.516800000000000,"lat":48.655200000000000,"addr":"Відділення №1: вул. Колгоспна, 10","city":"Суботці"},{"n":"1","lon":34.265032410622000,"lat":49.259682923731000,"addr":"Віділення: вул. Привокзальна, 16","city":"Білики"},{"n":"1","lon":24.154722200000000,"lat":48.936388900000000,"addr":"Відділення: вул. Січових Стрільців, 22","city":"Рожнятів"},{"n":"1","lon":23.828055600000000,"lat":51.192777800000000,"addr":"Відділення: вул. Прикордонників, 4 (біля митниці «Ягодин»)","city":"Старовойтове"},{"n":"1","lon":24.538803000000000,"lat":48.809854000000000,"addr":"Відділення №1: вул. Хмельницького, 3/1","city":"Богородчани"},{"n":"1","lon":24.572130000000000,"lat":48.636361000000000,"addr":"Відділення №1: вул. Мазепи, 34","city":"Надвірна"},{"n":"1","lon":27.227775000000000,"lat":49.973446000000000,"addr":"Відділення №1: вул. Терешкової, 3/1","city":"Гриців"},{"n":"1","lon":34.616407000000000,"lat":47.424102000000000,"addr":"Відділення №1: пров. Партизанський, 37","city":"Дніпровка (Запорізька обл.)"},{"n":"1","lon":32.336206000000000,"lat":49.516951000000000,"addr":"Відділення №1: вул. Леніна, 65а","city":"Іркліїв"},{"n":"1","lon":24.813611100000000,"lat":48.151666700000000,"addr":"Відділення №1: вул. Івана Франка, 107а","city":"Верховина"},{"n":"1","lon":31.096138271447000,"lat":49.193472193265000,"addr":"Відділення №1: вул. Шевченко, 93","city":"Шевченкове (Черкаська обл.)"},{"n":"1","lon":37.556262000000000,"lat":49.034175000000000,"addr":"Відділення №1: вул. Островського, 3","city":"Святогірськ"},{"n":"1","lon":25.095277800000000,"lat":48.315000000000000,"addr":"Відділення №1: вул. Горбового, 8","city":"Косів"},{"n":"1","lon":36.908100000000000,"lat":48.705642000000000,"addr":"Відділення №1: вул. Радянська, 3а","city":"Олександрівка (Донецьк)"},{"n":"1","lon":25.566666700000000,"lat":48.450000000000000,"addr":"Відділення: вул. Шевченка, 251","city":"Снятин"},{"n":"1","lon":28.678500000000000,"lat":48.374629000000000,"addr":"Відділення №1: вул. Леніна, 15","city":"Городківка"},{"n":"1","lon":35.098088979721000,"lat":48.469891070116000,"addr":"Відділення №1: вул. Маршала Малиновського, 98а","city":"Дніпропетровськ"},{"n":"1","lon":35.598898000000000,"lat":47.206710000000000,"addr":"Відділення №1: вул. Шевченка, 120","city":"Молочанськ"},{"n":"1","lon":34.451671000000000,"lat":48.543538000000000,"addr":"Відділення №1: вул. Дзержинського, 20","city":"Аули"},{"n":"1","lon":26.886936000000000,"lat":51.317556000000000,"addr":"Відділення №1: вул. Дзержинського, 32","city":"Клесів"},{"n":"1","lon":35.519819000000000,"lat":47.715621000000000,"addr":"Відділення №1: вул. Богдана Хмельницького, 47","city":"Комишуваха"},{"n":"1","lon":34.745858000000000,"lat":46.325262000000000,"addr":"Відділення №1: вул. Генічеська, 3а","city":"Партизани"},{"n":"1","lon":23.301698000000000,"lat":49.558619000000000,"addr":"Відділення №1: пл. Авіації, 24/11 ","city":"Новий Калинів"},{"n":"1","lon":22.789423000000000,"lat":49.570589000000000,"addr":"Відділення №1: вул. Грушевського, 3","city":"Добромиль"},{"n":"1","lon":26.194586000000000,"lat":48.852389000000000,"addr":"Відділення №1: вул. Купчинського, 13","city":"Скала-Подільська"},{"n":"1","lon":30.015465000000000,"lat":46.540228000000000,"addr":"Відділення №1: вул. Перемоги, 1г","city":"Троїцьке (Одеська обл.Біляївський р-н)"},{"n":"1","lon":25.013124000000000,"lat":51.077397000000000,"addr":"Відділення №1: вул. Ткача, 19а","city":"Голоби"},{"n":"1","lon":33.619764000000000,"lat":47.727490000000000,"addr":"Відділення №1: вул. Леніна, 4/3","city":"Нива Трудова"},{"n":"1","lon":22.846256000000000,"lat":48.496799000000000,"addr":"Відділення № 1: вул. Волошина, 117а","city":"Чинадійово"},{"n":"1","lon":38.376492480000000,"lat":48.644276710000000,"addr":"Відділення: вул. Герцена, 2д","city":"Попасна"},{"n":"1","lon":34.875839000000000,"lat":49.444060000000000,"addr":"Відділення: вул. Леніна, 109","city":"Машівка"},{"n":"1","lon":24.431666700000000,"lat":51.440833300000000,"addr":"Відділення: площа Миру, 3/5","city":"Стара Вижівка"},{"n":"1","lon":33.465494000000000,"lat":51.777939000000000,"addr":"Відділення №1: вул. Пролетарська, 5","city":"Вороніж"},{"n":"1","lon":38.211167000000000,"lat":49.048335000000000,"addr":"Відділення №1: вул. Перемоги, 6б","city":"Кремінна"},{"n":"1","lon":38.161637000000000,"lat":49.412857000000000,"addr":"Відділення №1: пл. Радянська, 7","city":"Сватове"},{"n":"1","lon":35.142999887466000,"lat":49.452803398956000,"addr":"Відділення №1: вул. Леніна, 30","city":"Карлівка"},{"n":"1","lon":25.608867000000000,"lat":49.395271000000000,"addr":"Відділення №1: вул. Грушевського, 42","city":"Микулинці"},{"n":"1","lon":38.308002800000000,"lat":49.904333300000000,"addr":"Відділення №1: вул. Базарна, 1а","city":"Троїцьке (Луганська обл.)"},{"n":"1","lon":28.633815000000000,"lat":49.238897000000000,"addr":"Відділення №1: вул. Гагаріна, 20г","city":"Гавришівка"},{"n":"1","lon":38.712764000000000,"lat":49.544370000000000,"addr":"Відділення №1: вул. Переїздна, 27а","city":"Білокуракине"},{"n":"1","lon":35.169515000000000,"lat":49.721543000000000,"addr":"Відділення №1: вул. Набережна, 1","city":"Чутове"},{"n":"1","lon":24.960555600000000,"lat":51.624166700000000,"addr":"Відділення №1: вул. Ковельська, 52","city":"Камінь-Каширський"},{"n":"1","lon":30.884412000000000,"lat":50.949742000000000,"addr":"Відділення №1: вул. Гагаріна, 12","city":"Остер"},{"n":"1","lon":23.349945345635000,"lat":48.059363047316000,"addr":"Відділення №1: вул. Центральна, 11/18","city":"Шаян"},{"n":"1","lon":39.117222200000000,"lat":49.529722200000000,"addr":"Відділення: вул. Леніна, 10","city":"Новопсков"},{"n":"1","lon":25.499167000000000,"lat":51.763056000000000,"addr":"Відділення: вул. Незалежності, 60","city":"Любешів"},{"n":"1","lon":25.725270000000000,"lat":48.843069000000000,"addr":"Відділення №1: вул. Українська, 90а","city":"Товсте"},{"n":"1","lon":33.272368311882000,"lat":49.380745358576000,"addr":"Відділення №1: вул. Жовтнева, 3а","city":"Глобине"},{"n":"1","lon":30.005277800000000,"lat":50.582500000000000,"addr":"Відділення №1: вул. Леніна, 7","city":"Клавдієво-Тарасове"},{"n":"1","lon":25.532777800000000,"lat":51.293888900000000,"addr":"Відділення №1: вул. Луцька, 19","city":"Маневичі"},{"n":"1","lon":30.916771000000000,"lat":50.219508200000000,"addr":"Відділення №1: вул. Леніна, 67","city":"Вороньків"},{"n":"1","lon":38.925421000000000,"lat":49.291228000000000,"addr":"ВІдділення №1: площа Товарна,5","city":"Старобільськ"},{"n":"1","lon":33.178914785385000,"lat":49.595795520902000,"addr":"Відділення: вул. Леніна, 52","city":"Семенівка(Полт.обл., Семенів.р-н)"},{"n":"1","lon":30.658639840000000,"lat":50.556197330000000,"addr":"Відділення №1: вул. Гагаріна, 18а","city":"Погреби"},{"n":"1","lon":39.567541700000000,"lat":49.521980600000000,"addr":"Відділення: вул. Лермонтова, 18","city":"Марківка"},{"n":"1","lon":24.555992217000000,"lat":49.674400900000000,"addr":"Відділення: вул. Привокзальна, 20","city":"Перемишляни"},{"n":"1","lon":30.012222200000000,"lat":48.208888900000000,"addr":"Відділення №1: вул. Жовтнева, 14","city":"Завалля (Кіровоград. обл)"},{"n":"1","lon":40.145716667175000,"lat":49.376323789475000,"addr":"Відділення: вул. Дружби народів, 103","city":"Мілове"},{"n":"1","lon":33.853533267975000,"lat":49.219236937762000,"addr":"Відділення №1: вул. Радянська, 44.","city":"Козельщина"},{"n":"1","lon":28.354379000000000,"lat":51.381145000000000,"addr":"Відділення №1: вул. Леніна, 3","city":"Словечне"},{"n":"1","lon":39.575556000000000,"lat":49.199167000000000,"addr":"Відділення №1: вул. Комсомольська, 1а","city":"Біловодськ"},{"n":"1","lon":34.190826416016000,"lat":49.151706560857000,"addr":"Відділення №1: вул. Шевченка, 40","city":"Кобеляки"},{"n":"1","lon":24.631122000000000,"lat":49.970381000000000,"addr":"Відділення: вул. Львівська, 8","city":"Буськ"},{"n":"1","lon":35.147902965546000,"lat":47.848137193719000,"addr":"Відділення №1: вул. Брянська,  8","city":"Запоріжжя"},{"n":"1","lon":32.127747500000000,"lat":46.970799360000000,"addr":"Відділення № 1: вул. Поштова, 14/2а","city":"Полігон"},{"n":"1","lon":25.266700000000000,"lat":50.916700000000000,"addr":"Відділення: вул. Незалежності, 82","city":"Рожище"},{"n":"1","lon":25.250000000000000,"lat":50.133333300000000,"addr":"Відділення: вул. Волковенка, 1а","city":"Радивилів"},{"n":"1","lon":34.314068555832000,"lat":49.338385336772000,"addr":"Відділення: вул. Жовтнева, 76","city":"Нові Санжари"},{"n":"1","lon":25.463865000000000,"lat":50.832603000000000,"addr":"Відділення №1: вул. Шевченка, 8","city":"Ківерці"},{"n":"1","lon":24.347002000000000,"lat":50.101506000000000,"addr":"Відділення №1: вул. Чупринки, 15","city":"Кам'янка-Бузька"},{"n":"1","lon":26.370676460000000,"lat":48.426439270000000,"addr":"Відділення № 1: вул. Головна, 29а","city":"Недобоївці"},{"n":"1","lon":24.650000000000000,"lat":50.733333300000000,"addr":"Відділення: вул. Луцька, 1/2","city":"Локачі"},{"n":"1","lon":23.135190609834000,"lat":48.154295712600000,"addr":"Відділення №1: вул. Злагоди, 25","city":"Королево"},{"n":"1","lon":29.878178000000000,"lat":47.838455000000000,"addr":"Відділення №1: вул. Шевченка, 17","city":"Жеребкове"},{"n":"1","lon":24.642721100000000,"lat":50.286665400000000,"addr":"Відділення: вул. Олександра Мишуги, 4","city":"Радехів"},{"n":"1","lon":24.326441000000000,"lat":50.842784000000000,"addr":"Відділення №1: вул. 20-го липня, 8 а","city":"Володимир-Волинський"},{"n":"1","lon":26.305069000000000,"lat":51.134946000000000,"addr":"Відділення №1: вул. Київська, 55","city":"Степань"},{"n":"1","lon":28.891903000000000,"lat":48.043472000000000,"addr":"Відділення №1: вул. Піонерська, 2а","city":"Загнітків"},{"n":"1","lon":23.971811000000000,"lat":50.051329000000000,"addr":"Відділення №1: вул. Дорошенка, 3","city":"Жовква"},{"n":"1","lon":25.904943000000000,"lat":48.029409000000000,"addr":"Відділення №1: вул. Сенюка, 2а","city":"Кам'янка (Чернівці)"},{"n":"1","lon":23.385325000000000,"lat":49.943268000000000,"addr":"Відділення №1: вул. П.Тичини, 1","city":"Яворів"},{"n":"1","lon":28.546636000000000,"lat":49.208180000000000,"addr":"Відділення № 1: вул. Грушевського, 48","city":"Вінницькі  Хутори"},{"n":"1","lon":33.755260000000000,"lat":49.168133000000000,"addr":"Відділення №1: вул. Жовтнева, 119а","city":"Нова Галещина (Козельщинський р-н)"},{"n":"1","lon":24.360277800000000,"lat":50.639722200000000,"addr":"Відділення №1: вул. 8-го березня, 5","city":"Іваничі (Волинська обл.)"},{"n":"1","lon":28.693306446075000,"lat":50.236668919281000,"addr":"Відділення №1: пл. Смолянська, 3","city":"Житомир"},{"n":"1","lon":26.118193000000000,"lat":50.753755000000000,"addr":"Відділення № 1: вул. Заводська, 2","city":"Оржів"},{"n":"1","lon":25.749947000000000,"lat":49.524659000000000,"addr":"Відділення №1: вул. Шевченка, 2","city":"Великі Бірки"},{"n":"1","lon":23.164544105530000,"lat":49.790629388442000,"addr":"Відділення: вул. Галицька, 56","city":"Мостиська"},{"n":"1","lon":38.007692000000000,"lat":48.595127000000000,"addr":"Відділення №1: вул. Горбатова, 69","city":"Артемівськ (Донецька обл.)"},{"n":"1","lon":24.157081000000000,"lat":50.857937000000000,"addr":"Відділення: вул. Володимирська, 25","city":"Устилуг"},{"n":"1","lon":24.765585000000000,"lat":50.498104000000000,"addr":"Відділення №1: вул. Шевченка, 16б","city":"Горохів"},{"n":"1","lon":28.859351000000000,"lat":49.953600000000000,"addr":"Відділення №1: вул. Жовтнева, 6а","city":"Червоне (Житомирська обл.)"},{"n":"1","lon":24.524045020000000,"lat":51.089599930000000,"addr":"ВІдділення: вул. Привокзальна,3а","city":"Турійськ"},{"n":"1","lon":26.575083392640000,"lat":48.254789388854000,"addr":"Відділення №1: вул. Леніна, 73","city":"Мамалига"},{"n":"1","lon":32.161300000000000,"lat":48.060100000000000,"addr":"Відділення №1: вул. Орженікідзе, 13","city":"Бобринець"},{"n":"1","lon":24.037777800000000,"lat":51.223055600000000,"addr":"Відділення: вул. 1-го Травня, 18","city":"Любомль"},{"n":"1","lon":23.740452000000000,"lat":49.911283000000000,"addr":"Відділення №1: вул. Львівська, 55","city":"Івано-Франкове"},{"n":"1","lon":32.533611000000000,"lat":47.946560000000000,"addr":"Відділення № 1: вул. Гагаріна, 2","city":"Устинівка"},{"n":"1","lon":33.972521424294000,"lat":50.378579953990000,"addr":"Відділення №1: вул. Лохвицька, 30в","city":"Гадяч"},{"n":"1","lon":32.559774450000000,"lat":46.371149390000000,"addr":"Відділення № 1: вул. Леніна, 412","city":"Таврійське (Гола Пристань)"},{"n":"1","lon":33.250561952591000,"lat":50.350732062233000,"addr":"Відділення: вул. Бурмистренка,  2а","city":"Лохвиця"},{"n":"1","lon":28.597480000000000,"lat":49.900363000000000,"addr":"Відділення №1: вул. Залізнична, 14","city":"Бердичів"},{"n":"1","lon":34.035083000000000,"lat":50.205635000000000,"addr":"Відділення № 1: вул. Дружби, 52","city":"Лютенька"},{"n":"1","lon":23.929722200000000,"lat":51.487777800000000,"addr":"Відділення: вул. С. Шковороди, 29","city":"Шацьк"},{"n":"1","lon":25.765840000000000,"lat":50.234535000000000,"addr":"Відділення: вул. Шкільна, 23","city":"Смига"},{"n":"1","lon":32.778300000000000,"lat":48.108300000000000,"addr":"Відділення №1: вул. Щорса, 9а","city":"Долинська"},{"n":"1","lon":34.949531000000000,"lat":50.833199000000000,"addr":"Відділення № 1: вул. Площа Гагаріна, 8а","city":"Верхня Сироватка"},{"n":"1","lon":32.636400326618000,"lat":48.358579000000000,"addr":"Відділення №1: вул. Кірова, 12","city":"Новгородка(Кіровоградська обл.)"},{"n":"1","lon":34.005160000000000,"lat":49.873931000000000,"addr":"Відділення №1: вул. Дерія, 58 (район Лікарні)","city":"Шишаки"},{"n":"1","lon":24.521966000000000,"lat":51.667102000000000,"addr":"Відділення №1: вул. Каштанова, 29","city":"Ратне"},{"n":"1","lon":30.874371528625000,"lat":48.059338063742000,"addr":"Відділення №1: вул. Вознесенська, 52","city":"Первомайськ(Микол.обл.Первомайс.р-н)"},{"n":"1","lon":33.869777900000000,"lat":51.332554000000000,"addr":"Відділення: вул. Кірова, 36","city":"Путивль"},{"n":"1","lon":33.113866000000000,"lat":48.683856000000000,"addr":"Відділення №1: пл. Кірова, 10","city":"Олександрія (м.Кіровогр.обл.райц)"},{"n":"1","lon":34.106857180595000,"lat":47.651490998596000,"addr":"Відділення: вул. Чехова, 1а","city":"Орджонікідзе"},{"n":"1","lon":26.243997000000000,"lat":50.634187000000000,"addr":"Відділення №1: вул. Князя Володимира 109а","city":"Рівне"},{"n":"1","lon":34.897800000000000,"lat":50.319872000000000,"addr":"Відділення № 1: пров. Миру, 2","city":"Охтирка"},{"n":"1","lon":27.591287000000000,"lat":50.591684000000000,"addr":"Відділення №1: вул. Вокзальна, 6","city":"Новоград-Волинський"},{"n":"1","lon":35.231164200000000,"lat":48.640752100000000,"addr":"Відділення №1: вул. Ковальова, 29А","city":"Новомосковськ"},{"n":"1","lon":35.840516000000000,"lat":48.530706000000000,"addr":"Відділення №1: вул. Дніпровська, 49 (район СШБ)","city":"Павлоград"},{"n":"1","lon":30.624565500000000,"lat":50.106033290000000,"addr":"Відділення №1: вул. Жовтнева, 14а","city":"Обухів"},{"n":"1","lon":34.083001613617000,"lat":49.562703305814000,"addr":"Відділення: вул. Шевченка, 11а","city":"Решетилівка"},{"n":"1","lon":35.070509970000000,"lat":49.773879790000000,"addr":"Відділення № 1: вул. Миру, 1","city":"Артемівка (Полтавська обл.)"},{"n":"1","lon":36.237345800000000,"lat":47.663600000000000,"addr":"Відділення №1: вул. Шевченка, 18в","city":"Гуляйполе"},{"n":"1","lon":33.445492000000000,"lat":50.194128000000000,"addr":"Відділення № 1: вул. Жовтнева, 25","city":"Вирішальне (Лохвицький р-н)"},{"n":"1","lon":25.972172000000000,"lat":49.426992000000000,"addr":"Відділення №1: вул. Тернопільська, 60","city":"Скалат"},{"n":"1","lon":33.383333300000000,"lat":51.550000000000000,"addr":"Відділення №1: вул. Карла Маркса, 15","city":"Кролевець"},{"n":"1","lon":34.783171000000000,"lat":46.172741000000000,"addr":"Відділення №1: вул. Чкалова, 93","city":"Генічеськ"},{"n":"1","lon":32.247782000000000,"lat":51.768363000000000,"addr":"Відділення №1: пров. Вокзальний, 6","city":"Корюківка"},{"n":"1","lon":35.166357900000000,"lat":46.696696900000000,"addr":"Відділення: вул. Патріотів, 10","city":"Якимівка (Запорізька обл.)"},{"n":"1","lon":35.315743000000000,"lat":47.077592000000000,"addr":"Відділення №1: вул. Шевченко, 56а","city":"Новобогданівка"},{"n":"1","lon":26.840440000000000,"lat":49.193376000000000,"addr":"Відділення №1: вул. Хмельницька, 4/1","city":"Ярмолинці"},{"n":"1","lon":32.516194581985000,"lat":51.524412034812000,"addr":"Відділення: вул. Виноградського, 19 а","city":"Сосниця"},{"n":"1","lon":29.541160000000000,"lat":50.099760000000000,"addr":"Відділення №1: вул. Жовтневої Революції, 5а","city":"Корнин (Житомирська обл.)"},{"n":"1","lon":24.551602640000000,"lat":48.448442230000000,"addr":"Відділення №1: вул. Степана Бандери, 6/2","city":"Яремче"},{"n":"1","lon":35.284314751625000,"lat":47.445467825630000,"addr":"Відділення №1: вул. Леніна, 2а","city":"Василівка (Запорізька обл.)"},{"n":"1","lon":32.213217616081000,"lat":51.520276511452000,"addr":"Відділення: вул. Червоноармійська, 1","city":"Мена"},{"n":"1","lon":27.796462000000000,"lat":48.615953000000000,"addr":"Відділення №1: вул. Леніна, 53","city":"Вендичани"},{"n":"1","lon":36.115702399984000,"lat":49.891948109773000,"addr":"Відділення №1: вул. Трудова, 1в","city":"Високий"},{"n":"1","lon":26.562833000000000,"lat":49.174461000000000,"addr":"Відділення: вул. Грушевського,11","city":"Городок(Хмельницький)"},{"n":"1","lon":28.809446000000000,"lat":51.327202000000000,"addr":"Відділення №1: вул. Базарна, 3","city":"Овруч"},{"n":"1","lon":38.501005000000000,"lat":48.751504000000000,"addr":"Відділення №1: вул. Радянська, 7","city":"Гірське"},{"n":"1","lon":37.841406000000000,"lat":48.331609000000000,"addr":"Відділення №1: вул. Артема, 1","city":"Новгородське (Донецька обл.)"},{"n":"1","lon":26.343271000000000,"lat":49.015800000000000,"addr":"Відділення: вул.Центральна, 2","city":"Чемерівці"},{"n":"1","lon":26.493822000000000,"lat":50.438658000000000,"addr":"Відділення: вул. Мирна, 21","city":"Оженин"},{"n":"1","lon":34.313038000000000,"lat":51.146154000000000,"addr":"Відділення №1: вул. Леніна, 64а","city":"Білопілля"},{"n":"1","lon":36.257451000000000,"lat":47.479531000000000,"addr":"Відділення: вул. Пролетарська, 29","city":"Пологи"},{"n":"1","lon":32.588776000000000,"lat":52.175027700000000,"addr":"Відділення: вул. Червона Площа, 58","city":"Семенівка(Чернігівська обл.)"},{"n":"1","lon":28.944653000000000,"lat":48.814570000000000,"addr":"Відділення №1: вул. Енгельса, 5","city":"Брацлав"},{"n":"1","lon":30.927055000000000,"lat":51.300029440000000,"addr":"Відділення №1: вул. Танкістів, 45","city":"Гончарівське"},{"n":"1","lon":30.335285000000000,"lat":50.489543800000000,"addr":"Відділення №1: вул. Доківська, 5б","city":"Коцюбинське"},{"n":"1","lon":27.536211000000000,"lat":50.183187000000000,"addr":"Відділення №1: вул. Перемоги, 34/14","city":"Понінка"},{"n":"1","lon":36.331240200000000,"lat":49.129014800000000,"addr":"Відділення № 1: Мікрорайон, 10/1","city":"Краснопавлівка"},{"n":"1","lon":29.080541000000000,"lat":51.203502000000000,"addr":"Відділення: вул. 1-го Травня, 11","city":"Народичі"},{"n":"1","lon":35.321675000000000,"lat":48.881374000000000,"addr":"Відділення №1: вул. Леніна, 5","city":"Голубівка"},{"n":"1","lon":30.332862000000000,"lat":50.731039000000000,"addr":"Відділення №1: вул. Київська, 67","city":"Демидів"},{"n":"1","lon":25.583876000000000,"lat":49.585011000000000,"addr":"Відділення №1: вул. Мазепи, 26","city":"Біла"},{"n":"1","lon":35.415294000000000,"lat":46.826093440000000,"addr":"Відділення № 1: вул. Щорса, 97/4","city":"Костянтинівка(Мелітоп.р-н,Запоріз.обл)"},{"n":"1","lon":28.667451000000000,"lat":50.453062000000000,"addr":"Відділення № 1: вул. Леніна, 2","city":"Черняхів (Житомирська обл.)"},{"n":"1","lon":23.871211000000000,"lat":47.957622000000000,"addr":"Відділення №1: вул. Сігетська, 2","city":"Солотвино"},{"n":"1","lon":33.278277000000000,"lat":52.005653000000000,"addr":"Відділення: вул. Шевченка, 23","city":"Новгород-Сіверський"},{"n":"1","lon":30.445692500000000,"lat":50.625380624210000,"addr":"Відділення: вул. Шевченка, 2","city":"Нові Петрівці"},{"n":"1","lon":24.340488000000000,"lat":51.227441000000000,"addr":"Відділення №1: вул. Ковельська, 4а","city":"Луків"},{"n":"1","lon":22.206974029541000,"lat":48.431421655518000,"addr":"Відділення №1: вул. Головна, 29а","city":"Чоп"},{"n":"1","lon":24.076053540000000,"lat":49.978240610000000,"addr":"Відділення №1: вул. Жовківська, 4а","city":"Куликів"},{"n":"1","lon":23.424146000000000,"lat":48.047498000000000,"addr":"Відділення №1: вул. Партизанська, 24","city":"Вишково"},{"n":"1","lon":32.962136000000000,"lat":51.570713000000000,"addr":"Відділення №1: вул. Горького, 3","city":"Короп"},{"n":"1","lon":24.077387000000000,"lat":51.337535000000000,"addr":"Відділення №1: вул. Жовтнева, 3","city":"Головне"},{"n":"1","lon":25.191537270000000,"lat":48.251551030000000,"addr":"Відділення №1: вул. Українська, 87","city":"Вижниця"},{"n":"1","lon":30.098676681519000,"lat":50.566638818427000,"addr":"Відділення: вул. 50 років СРСР, 1/1","city":"Немішаєве"},{"n":"1","lon":35.811635000000000,"lat":47.556007000000000,"addr":"Відділення №1: вул. Рози Люксембург, 2д","city":"Оріхів"},{"n":"1","lon":29.742831000000000,"lat":48.130093000000000,"addr":"Відділення №1: вул. Приходька, 12, кв. 1","city":"Піщана (Одеська обл.)"},{"n":"1","lon":24.089210000000000,"lat":49.888496000000000,"addr":"Відділення №1: вул. Вокзальна, 7","city":"Дубляни (Львів.обл.,Жовків.р-н)"},{"n":"1","lon":30.621588820000000,"lat":46.541108610000000,"addr":"Відділення №1: вул. Леніна, 50б","city":"Нерубайське "},{"n":"1","lon":25.760201910000000,"lat":48.445665360000000,"addr":"Відділення №1: вул. Незалежності, 107 а ","city":"Кіцмань"},{"n":"1","lon":27.402659000000000,"lat":49.438475000000000,"addr":"Відділення №1: вул. Радянська, 1","city":"Меджибіж"},{"n":"1","lon":29.977724000000000,"lat":46.337486000000000,"addr":"Відділення №1: вул. Леніна, 2","city":"Старокозаче"},{"n":"1","lon":29.057480000000000,"lat":50.315316000000000,"addr":"Відділення №1: вул. Карла Маркса, 56","city":"Коростишів"},{"n":"1","lon":24.314749530000000,"lat":49.407224660000000,"addr":"Відділення №1: вул. Кропивницького, 1","city":"Ходорів"},{"n":"1","lon":32.829732928836000,"lat":51.183082500800000,"addr":"Відділення: вул. Ярослава Мудрого, 24","city":"Бахмач"},{"n":"1","lon":26.276765000000000,"lat":48.422208000000000,"addr":"Відділення №1: вул. Головна, 110","city":"Клішківці"},{"n":"1","lon":35.365469000000000,"lat":47.588036000000000,"addr":"Відділення №1: вул. Молодіжна, 4б","city":"Степногірськ"},{"n":"1","lon":30.303200000000000,"lat":50.343100000000000,"addr":"Відділення №1: вул. Шевченка, 3а","city":"Тарасівка"},{"n":"1","lon":26.866760000000000,"lat":49.808202000000000,"addr":"Відділення №1: вул. Шосейна, 14а","city":"Антоніни"},{"n":"1","lon":25.857170000000000,"lat":48.998960000000000,"addr":"Відділення №1: вул. Івана Франка, 1","city":"Заводське"},{"n":"1","lon":35.083507043624000,"lat":48.363072893909000,"addr":"Відділення №1:вул. Аеродром, буд.10,прим.91","city":"Авіаторське"},{"n":"1","lon":35.337280000000000,"lat":48.646200000000000,"addr":"Відділення №1: вул. Куйбишева, 6г","city":"Орлівщина"},{"n":"1","lon":33.908606000000000,"lat":47.554148000000000,"addr":"Відділення №1: вул. 1-го Травня, 30","city":"Мар'янське"},{"n":"1","lon":32.663079000000000,"lat":50.090195000000000,"addr":"Відділення № 1:вул. Шевченка, 30а","city":"Лазірки (Оржицький р-н)"},{"n":"1","lon":33.351456600000000,"lat":46.785014260000000,"addr":"Відділення № 1: вул. Шевченко, 9а","city":"Козацьке (Херсонська обл.)"},{"n":"1","lon":29.522348743408000,"lat":50.277052636974000,"addr":"Відділення №1: вул. 1 травня, 46","city":"Брусилів"},{"n":"1","lon":30.423073000000000,"lat":50.338130000000000,"addr":"Відділення №1: вул. Юності, 3","city":"Чабани"},{"n":"1","lon":22.558934000000000,"lat":48.419878000000000,"addr":"Відділення №1: площа Визволення, 6","city":"Великі Лучки"},{"n":"1","lon":30.756854000000000,"lat":50.931248000000000,"addr":"Відділення № 1: вул. Ювілейна, 2а","city":"Десна (Чернігівська обл.)"},{"n":"1","lon":30.821111000000000,"lat":50.559167000000000,"addr":"Відділення № 1: вул. Ігорева, 4","city":"Калинівка (Броварський р-н)"},{"n":"1","lon":28.107742750000000,"lat":49.038443250000000,"addr":"Відділення №1: вул. Київська, 18","city":"Жмеринка"},{"n":"1","lon":36.081388000000000,"lat":49.879871000000000,"addr":"Відділення №1: вул. Жовтнева, 3","city":"Південне (Харківська обл.)"},{"n":"1","lon":33.066139130000000,"lat":48.720223940000000,"addr":"Відділення № 1: вул. Жовтнева, 8","city":"Приютівка (Кіровоградська обл.)"},{"n":"1","lon":29.249824000000000,"lat":50.496659280000000,"addr":"Відділення №1: пров. Базарний, 7а","city":"Радомишль"},{"n":"1","lon":31.050178000000000,"lat":49.977502000000000,"addr":"Відділення № 1, вул. Петровського, 38","city":"Ржищів"},{"n":"1","lon":32.416156000000000,"lat":51.265512000000000,"addr":"Відділення №1: вул. Палія Семена, 12є","city":"Борзна"},{"n":"1","lon":36.296180520000000,"lat":49.874195070000000,"addr":"Відділення №1: вул. Зміївська, 68а","city":"Безлюдівка"},{"n":"1","lon":30.456463000000000,"lat":50.347633000000000,"addr":"Відділення №1: вул. Васильківська, 2а","city":"Новосілки (Києво-Святошинський р-н)"},{"n":"1","lon":35.383471000000000,"lat":48.704047000000000,"addr":"Відділення №1: вул. Дачна, 5","city":"Черкаське"},{"n":"1","lon":35.038554000000000,"lat":47.622934000000000,"addr":"Відділення № 1: вул. Леніна, 2б","city":"Біленьке"},{"n":"1","lon":30.294630000000000,"lat":47.637811300000000,"addr":"Відділення №1: вул. Леніна, 16","city":"Троїцьке (Одеська обл.Любашівський р-н)"},{"n":"1","lon":23.691687450000000,"lat":49.625038560000000,"addr":"Відділення №1: площа Івана Франка, 32","city":"Комарно"},{"n":"1","lon":30.157324500000000,"lat":50.544233790000000,"addr":"Відділення № 1: вул. Радянська, 7","city":"Ворзель"},{"n":"1","lon":37.186863000000000,"lat":48.407114000000000,"addr":"Відділення: вул. Донецька, 48","city":"Білицьке"},{"n":"1","lon":30.616768000000000,"lat":46.475177000000000,"addr":"Відділення № 1: вул. Абрикосова, 1","city":"Авангард"},{"n":"1","lon":35.275747000000000,"lat":48.402558000000000,"addr":"Відділення №1: вул. Красіна, 2","city":"Іларіонове"},{"n":"1","lon":32.436018000000000,"lat":47.043195000000000,"addr":"Відділення №1: вул. Ювілейна, 9а","city":"Первомайське(смт-Микол.обл.Жовтнев.р-н)"},{"n":"1","lon":35.612856000000000,"lat":48.478951000000000,"addr":"Відділення № 1: вул. Шевченка, 13","city":"Майське"},{"n":"1","lon":28.720797000000000,"lat":50.748872000000000,"addr":"ВІдділення №1: вул. Гулія, 23","city":"Іршанськ"},{"n":"1","lon":30.314507000000000,"lat":50.255432000000000,"addr":"Відділення №1: вул. Вокзальна, 11","city":"Глеваха"},{"n":"1","lon":25.970791000000000,"lat":50.743790000000000,"addr":"Відділення №1: вул. Богдана Хмельницького, 26","city":"Клевань"},{"n":"1","lon":35.931207240000000,"lat":49.947356840000000,"addr":"Відділення: вул. Радянська, 32/2-19","city":"Люботин"},{"n":"1","lon":26.010845000000000,"lat":49.332305000000000,"addr":"Відділення №1: вул. Шевченка, 5","city":"Гримайлів"},{"n":"1","lon":29.971632000000000,"lat":46.664898000000000,"addr":"Відділення №1: мікрорайон Військове містечко","city":"Лиманське (Роздільнянський р-н)"},{"n":"1","lon":36.192422211170000,"lat":50.334870832283000,"addr":"Відділення №1: вул. Кооперативна, 3","city":"Козача Лопань"},{"n":"1","lon":32.895093000000000,"lat":48.675969000000000,"addr":"Відділення № 1: вул. Магістральна, 43а","city":"Пантаївка"},{"n":"1","lon":23.284389580000000,"lat":48.367197900000000,"addr":"Відділення № 1: вул. Перемоги, 32","city":"Довге (Закарпатська обл.)"},{"n":"1","lon":33.280964000000000,"lat":48.056641000000000,"addr":"Відділення №1: вул. Леніна, 42","city":"Лозуватка"},{"n":"1","lon":26.168337000000000,"lat":48.603056000000000,"addr":"Відділення № 1: вул. Івана Франка, 29","city":"Мельниця-Подільська (Тернопільська обл.)"},{"n":"1","lon":35.883227884769000,"lat":50.054624530541000,"addr":"Відділення №1: вул. Радянська, 2","city":"Вільшани (Харківська обл.)"},{"n":"1","lon":23.857848000000000,"lat":49.651178000000000,"addr":"Відділення №1: вул. Княжа, 4г","city":"Щирець"},{"n":"1","lon":25.619492840000000,"lat":48.049022640000000,"addr":"Відділення №1: вул. Емінеску, 78б","city":"Чудей"},{"n":"1","lon":29.254790000000000,"lat":50.771425000000000,"addr":"Відділення №1: вул. Фрунзе, 21б","city":"Малин"},{"n":"1","lon":33.029144000000000,"lat":49.994468000000000,"addr":"Відділення № 1: вул. Комсомольська, 46","city":"Засулля"},{"n":"1","lon":37.862031000000000,"lat":48.393409000000000,"addr":"Відділення №1: вул. Польова, 1","city":"Дзержинськ"},{"n":"1","lon":36.057521200000000,"lat":49.807056000000000,"addr":"Відділення: вул. Савченка, 1в","city":"Мерефа"},{"n":"1","lon":36.931341290474000,"lat":49.716148572340000,"addr":"Відділення №1: вул. Леніна, 16","city":"Чкаловське"},{"n":"1","lon":36.613876000000000,"lat":49.535090000000000,"addr":"Відділення №1: вул. Леніна, 5а","city":"Андріївка (Харків)"},{"n":"1","lon":24.666611317000000,"lat":50.377803000000000,"addr":"Відділення №1: вул. Стуса, 77б","city":"Стоянів (Львівська обл.)"},{"n":"1","lon":34.618452000000000,"lat":49.554015000000000,"addr":"Відділення № 1: вул. Шевченка, 12/2","city":"Терешки (Полтавський р-н)"},{"n":"1","lon":37.280729000000000,"lat":48.304172000000000,"addr":"Відділення №1: мікрорайон Світлий, \"Ринок Лідер\", 3/1","city":"Димитров (Донецька обл.)"},{"n":"1","lon":23.546649000000000,"lat":48.236562000000000,"addr":"Відділення №1: вул. Леніна, 100","city":"Драгово"},{"n":"1","lon":30.721396421890000,"lat":50.306498453309000,"addr":"Відділення №1: вул. Леніна, 150б","city":"Вишеньки"},{"n":"1","lon":29.539146000000000,"lat":48.424986000000000,"addr":"Відділення № 1: вул. Леніна, 32а","city":"Війтівка"},{"n":"1","lon":37.200879000000000,"lat":48.352499000000000,"addr":"Відділення № 1: вул. Маяковського, 15","city":"Родинське"},{"n":"1","lon":24.286535870000000,"lat":49.258030970000000,"addr":"Відділення № 1: пл. Степана Бандери, 6","city":"Журавно"},{"n":"1","lon":31.956533000000000,"lat":49.450483000000000,"addr":"Відділення № 1: вул. Мічуріна, 1а","city":"Геронимівка"},{"n":"1","lon":24.999592000000000,"lat":50.765773000000000,"addr":"Відділення №1: вул. Незалежності, 95","city":"Торчин"},{"n":"1","lon":31.593611100000000,"lat":51.890555600000000,"addr":"Відділення №1: вул. Леніна, 3","city":"Городня"},{"n":"1","lon":26.442683000000000,"lat":49.498144000000000,"addr":"Відділення №1: вул. Миру, 3","city":"Війтівці (Хмельницька обл.)"},{"n":"1","lon":36.351354000000000,"lat":46.737253000000000,"addr":"Відділення №1: вул. Куйбишева, 80","city":"Приморськ (Запорізька обл.)"},{"n":"1","lon":33.292175000000000,"lat":47.542950000000000,"addr":"Відділення №1: вул. Молодіжна, 1","city":"Шестірня"},{"n":"1","lon":37.302896976471000,"lat":48.145329254020000,"addr":"Відділення: вул. Гоголя, 2","city":"Селидове"},{"n":"1","lon":26.759165980000000,"lat":49.497157330000000,"addr":"Відділення № 1: вул. Чапаєва, 41в ","city":"Чорний Острів"},{"n":"1","lon":30.168410000000000,"lat":50.442325000000000,"addr":"Відділення № 1: вул. Комарова, 38","city":"Мила"},{"n":"1","lon":31.898706023650000,"lat":51.044027893300000,"addr":"Відділення №1: вул. Івана Франка, 18","city":"Ніжин"},{"n":"1","lon":29.600261000000000,"lat":50.699353000000000,"addr":"Відділення №1: вул. Філіпова, 21б","city":"Пісківка"},{"n":"1","lon":31.944326162338000,"lat":51.812787052073000,"addr":"Відділення: вул. Фрунзе, 4","city":"Щорс"},{"n":"1","lon":28.540546515900000,"lat":49.284863872180000,"addr":"Відділення №1: вул. Гагаріна, 6","city":"Десна (Вінницька обл.)"},{"n":"1","lon":36.212895000000000,"lat":47.193741000000000,"addr":"Відділення №1: вул. Леніна, 379","city":"Чернігівка"},{"n":"1","lon":25.427222000000000,"lat":50.739444000000000,"addr":"Відділення №1: вул. Рівненська, 72","city":"Струмівка"},{"n":"1","lon":35.441458000000000,"lat":46.948550000000000,"addr":"Відділення №1: вул. Леніна, 18а","city":"Мирне"},{"n":"1","lon":30.468958140000000,"lat":50.326493290000000,"addr":"Відділення № 1: вул. Богдана Хмельницького, 1","city":"Хотів"},{"n":"1","lon":26.139947000000000,"lat":50.400011000000000,"addr":"Відділення №1: вул. Липки, 25","city":"Мізоч"},{"n":"1","lon":23.443651830000000,"lat":48.846835490000000,"addr":"Відділення №1: вул. Архангельського, 7","city":"Славське (Львівська обл.)"},{"n":"1","lon":30.112112000000000,"lat":50.183515000000000,"addr":"Відділення №1: вул. Театральна, 17а","city":"Борова (Київ)"},{"n":"1","lon":23.139614000000000,"lat":48.329483000000000,"addr":"Відділення №1: вул. Центральна, б/н","city":"Білки"},{"n":"1","lon":37.329915000000000,"lat":48.210564000000000,"addr":"Відділення №1: вул. 40 років Жовтня, 19","city":"Новогродівка"},{"n":"1","lon":23.487587160000000,"lat":48.048649260000000,"addr":"Відділення № 1: вул. Травнева, 8","city":"Буштино"},{"n":"1","lon":30.648622000000000,"lat":50.230496000000000,"addr":"Відділення № 1: вул. Анатолія Солов'яненка, 68","city":"Козин (Київська обл.)"},{"n":"1","lon":36.259071249510000,"lat":50.146324136182000,"addr":"Відділення №1: вул. Бєлгородська, 8","city":"Руська Лозова"},{"n":"1","lon":36.317198000000000,"lat":48.385736000000000,"addr":"Відділення №1: вул. Першотравнева, 161а","city":"Миколаївка (Дніпропетровська обл.)"},{"n":"1","lon":33.914420030000000,"lat":49.838893680000000,"addr":"Відділення № 1: вул. Леніна, 64а","city":"Яреськи"},{"n":"1","lon":33.436802000000000,"lat":49.059373000000000,"addr":"Відділення №1: вул.Флотська, 2","city":"Кременчук"},{"n":"1","lon":28.482229000000000,"lat":48.790807000000000,"addr":"Відділення №1: вул. Леніна, 113","city":"Рахни-Лісові"},{"n":"1","lon":23.371478000000000,"lat":49.791340000000000,"addr":"Відділення №1: вул. Івана Франка, 14а","city":"Судова Вишня"},{"n":"1","lon":38.207599500000000,"lat":49.210375740000000,"addr":"Відділення №1: вул. Привокзальна, 9а","city":"Красноріченське"},{"n":"1","lon":35.711176499990000,"lat":47.253378798225000,"addr":"Відділення №1: вул. Шевченка, 3","city":"Токмак"},{"n":"1","lon":36.030669000000000,"lat":48.463525000000000,"addr":"Відділення №1: вул. Карла Маркса, 64а","city":"Богуслав (Дніпропетровська обл.)"},{"n":"1","lon":37.361840000000000,"lat":48.098606000000000,"addr":"Відділення № 1: вул. Октябрська, 10","city":"Українськ (Донецька обл.)"},{"n":"1","lon":31.303916000000000,"lat":48.595126000000000,"addr":"Відділення №1: вул. Казакова, 43","city":"Смоліне"},{"n":"1","lon":31.739753000000000,"lat":49.526128000000000,"addr":"Відділення №1: вул. Леніна, 147а","city":"Мошни"},{"n":"1","lon":33.501932000000000,"lat":47.822772000000000,"addr":"Відділення №1: вул. Шкільна, 1","city":"Радушне"},{"n":"1","lon":26.319091000000000,"lat":51.280388000000000,"addr":"Відділення №1: вул. А. Коломійця, 197а","city":"Городець"},{"n":"1","lon":33.140494823456000,"lat":49.240325659801000,"addr":"Відділення №1: вул. Київська, 46","city":"Градизьк"},{"n":"1","lon":23.433978000000000,"lat":48.269812330000000,"addr":"Відділення № 1: вул. Незалежності, 3а","city":"Горінчово"},{"n":"1","lon":34.742429000000000,"lat":50.063135000000000,"addr":"Відділення №1: вул. Островського, 21","city":"Котельва"},{"n":"1","lon":34.816949000000000,"lat":48.589175000000000,"addr":"Відділення № 1: вул. Леніна, 29а","city":"Партизанське (Дніпропетров.р-н)"},{"n":"1","lon":36.650015000000000,"lat":47.360720000000000,"addr":"Відділення №1: пров. Поштовий, 27 в (навпроти Центру зайнятості)","city":"Куйбишеве (Запорізька обл.)"},{"n":"1","lon":23.751258290000000,"lat":49.427781250000000,"addr":"Відділення №1: вул. Незалежності, 22","city":"Меденичі"},{"n":"1","lon":24.624843000000000,"lat":49.928543000000000,"addr":"Відділення № 1: вул. Маковея, 7","city":"Красне (Львівська обл.)"},{"n":"1","lon":36.896933000000000,"lat":49.175498000000000,"addr":"Відділення №1: вул. Ханіна, 13","city":"Петрівське (Харківська обл.)"},{"n":"1","lon":28.049017200000000,"lat":51.113467500000000,"addr":"Відділення №1: вул. Фрунзе, 7","city":"Нові Білокоровичі"},{"n":"1","lon":37.070845000000000,"lat":47.388631000000000,"addr":"Відділення №1: вул. Визволителів, 1б","city":"Розівка (Запорізька обл.)"},{"n":"1","lon":33.649673000000000,"lat":47.566065000000000,"addr":"Відділення №1: вул. Леніна, 6","city":"Зеленодольськ"},{"n":"1","lon":33.594665000000000,"lat":52.266043000000000,"addr":"Відділення № 1: вул. Вокзальна, 22","city":"Зноб-Новгородське"},{"n":"1","lon":34.483897984028000,"lat":48.868430581295000,"addr":"Відділення №1: вул. Дніпропетровська, 5","city":"Могилів"},{"n":"1","lon":34.348607910000000,"lat":50.213254260000000,"addr":"Відділення №1: вул. Погребняка, 8б","city":"Зіньків"},{"n":"1","lon":35.100962112489000,"lat":49.582269883135000,"addr":"Відділення №1: вул. Леніна, 4","city":"Максимівка"},{"n":"1","lon":33.944188000000000,"lat":50.025106000000000,"addr":"Відділення № 1: вул. Гоголя, 26","city":"Великі Сорочинці"},{"n":"1","lon":34.738481000000000,"lat":47.817357000000000,"addr":"Відділення №1: вул. Шосейна, 6","city":"Томаківка"},{"n":"1","lon":30.227573000000000,"lat":50.219437000000000,"addr":"Відділення №1: вул. Проектна, 1","city":"Калинівка(Васильківський р-н.)"},{"n":"1","lon":31.208856000000000,"lat":49.209681000000000,"addr":"Відділення № 1: вул. Шевченка, 57","city":"Вільшана (Черкаська обл.)"},{"n":"1","lon":26.276566660000000,"lat":48.222783170000000,"addr":"Відділення №1: вул. Пірогова, 15 а","city":"Новоселиця"},{"n":"1","lon":34.112059000000000,"lat":48.356324000000000,"addr":"Відділення №1: вул. Кооперативна, 20","city":"Щорськ"},{"n":"1","lon":23.907494280000000,"lat":49.872326390000000,"addr":"Відділення №1: вул. Паркова, 16","city":"Рясне-Руське"},{"n":"1","lon":37.062468000000000,"lat":48.536394000000000,"addr":"Відділення №1: вул. Московська, 5","city":"Білозерське (Донецька обл.)"},{"n":"1","lon":32.536340197090000,"lat":46.084831254567000,"addr":"Відділення №1: вул. Комсомольська, 35","city":"Лазурне (Херсонська обл.)"},{"n":"1","lon":37.576151000000000,"lat":47.717173000000000,"addr":"Відділення №1: вул. Радянська, 46а","city":"Новотроїцьке (Донецька обл.)"},{"n":"1","lon":23.890991000000000,"lat":48.170590000000000,"addr":"Відділення №1: вул. Гагаріна, 43","city":"Дубове"},{"n":"1","lon":23.162883560000000,"lat":49.960581070000000,"addr":"Відділення №1: пл. Шухевича, 8","city":"Краковець"},{"n":"1","lon":30.096560000000000,"lat":47.876876000000000,"addr":"Відділення №1: вул. Шевченка, дом. 2, кв. 2","city":"Зеленогірське"},{"n":"1","lon":33.150110000000000,"lat":46.426283000000000,"addr":"Відділення №1: вул. Лікарняна, 1а","city":"Брилівка"},{"n":"1","lon":35.361203492060000,"lat":49.019025959576000,"addr":"Відділення №1: вул. Шевченка, 14","city":"Перещепине"},{"n":"1","lon":32.380283000000000,"lat":49.284151000000000,"addr":"Відділення № 1: вул. Черкаська, 104/3","city":"Сагунівка"},{"n":"1","lon":36.794832000000000,"lat":48.136893000000000,"addr":"Відділення №1: вул. Комунарівська, 46","city":"Новопавлівка"},{"n":"1","lon":24.160308600000000,"lat":50.396396700000000,"addr":"Відділення № 1: вул. Центральна, 108","city":"Острів (Львівська обл.)"},{"n":"1","lon":34.412451982498000,"lat":47.488361254486000,"addr":"Відділення №1: вул. Радянська, 4","city":"Кам'янка-Дніпровська (Запоріжжя)"},{"n":"1","lon":24.699789320000000,"lat":48.948577020000000,"addr":"Відділення №1: вул. Хіміків, 5б","city":"Угринів"},{"n":"1","lon":33.399054408073000,"lat":50.402759931432000,"addr":"Відділення: вул. Матросова, 19 б","city":"Червонозаводське"},{"n":"1","lon":26.490788020000000,"lat":48.501076120000000,"addr":"Відділення: вул. Дудніченка, 39г","city":"Хотин"},{"n":"1","lon":34.774440000000000,"lat":50.776134000000000,"addr":"Відділення № 1: вул. Родгоспна, 19","city":"Низи"},{"n":"1","lon":23.974348340000000,"lat":49.532624270000000,"addr":"Відділення №1: вул. Грушевського, 3а","city":"Миколаїв(Львів)"},{"n":"1","lon":28.448294000000000,"lat":50.600884000000000,"addr":"Відділення №1: вул. Карла Маркса, 51","city":"Володарськ-Волинський"},{"n":"1","lon":37.410893000000000,"lat":47.727352000000000,"addr":"Відділення №1: вул. Симоненка, 17","city":"Володимирівка (Донецька обл.)"},{"n":"1","lon":34.683059000000000,"lat":47.275573000000000,"addr":"м. Велика Білозерка, Відділення №1: вул. Центральна, 131 б","city":"Велика Білозерка"},{"n":"1","lon":37.085748000000000,"lat":48.453545000000000,"addr":"Відділення №1: просп. Перемоги, 71","city":"Добропілля"},{"n":"1","lon":36.843539000000000,"lat":49.451180000000000,"addr":"Відділення №1: вул. 8-го Березня, 3б","city":"Балаклія (Харків)"},{"n":"1","lon":27.807777800000000,"lat":50.872222200000000,"addr":"Відділення №1: вул. Леніна, 29","city":"Ємільчине"},{"n":"1","lon":34.740691000000000,"lat":48.473026000000000,"addr":"Відділення № 1: вул. Пушкіна, 30в","city":"Карнаухівка(Дніпропетровська обл.)"},{"n":"1","lon":35.226307810000000,"lat":47.269443590000000,"addr":"Відділення: вул. 50-річчя ВЛКСМ, 17","city":"Михайлівка (Михайлівський р-н. Запорізька обл.)"},{"n":"1","lon":30.930635000000000,"lat":46.583688000000000,"addr":"Відділення №1: вул. Гвардійська, 66","city":"Чорноморське (Одеська обл.)"},{"n":"1","lon":36.716990000000000,"lat":49.802175920000000,"addr":"Відділення № 1: пл. 1-го Травня, 3","city":"Малинівка (Харківська обл.)"},{"n":"1","lon":22.331640000000000,"lat":48.638020000000000,"addr":"Відділення №1: вул. Доманинська, 308а","city":"Оноківці (ст. Доманинці)"},{"n":"1","lon":25.281127946100000,"lat":48.578388277318000,"addr":"Відділення №1: вул. Івана Франка, 46","city":"Гвіздець"},{"n":"1","lon":25.341945610000000,"lat":48.172933780000000,"addr":"Відділення №1: вул. Комсомольська, 9б","city":"Берегомет"},{"n":"1","lon":24.354396000000000,"lat":48.267020000000000,"addr":"Відділення: вул. Миру, 48","city":"Ясіня"},{"n":"1","lon":34.644243410000000,"lat":46.227044540000000,"addr":"Відділення № 1: вул. Червоноарміська, 7","city":"Новоолексіївка (Херсонська обл.)"},{"n":"1","lon":38.068536000000000,"lat":48.699516000000000,"addr":"Відділення №1: вул. Карпинського, 10а","city":"Соледар"},{"n":"1","lon":22.507128000000000,"lat":48.538969000000000,"addr":"Відділення №1: вул. Закарпатська, 75","city":"Середнє"},{"n":"1","lon":35.432483000000000,"lat":47.945667000000000,"addr":"Відділення №1: вул. Шевченка, 28а","city":"Вільнянськ"},{"n":"1","lon":27.420940000000000,"lat":49.268775000000000,"addr":"Відділення №1: вул. Проскурівська, 3","city":"Деражня"},{"n":"1","lon":33.873576000000000,"lat":47.267047000000000,"addr":"Відділення №1: вул. 1-го Травня, 96","city":"Новоолександрівка (Херсонська обл.)"},{"n":"1","lon":38.105681000000000,"lat":48.871426300000000,"addr":"Відділення № 1: вул. Суворова, 28","city":"Сіверськ"},{"n":"1","lon":24.138123100000000,"lat":49.749858000000000,"addr":"Відділення №1: вул. Галицька, 11","city":"Давидів"},{"n":"1","lon":37.639869000000000,"lat":49.709556000000000,"addr":"Відділення №1: вул. Дзержинського, 56","city":"Куп'янськ"},{"n":"1","lon":27.640341000000000,"lat":51.216754000000000,"addr":"Відідлення: вул. Промислова, 1","city":"Олевськ"},{"n":"1","lon":32.505053000000000,"lat":48.751912000000000,"addr":"Відділення № 1: вул. Миру, 8/3","city":"Богданівка (Кіровоградська обл.)"},{"n":"1","lon":35.898127298900000,"lat":47.978905359592000,"addr":"Відділення №1: вул. Леніна, 23","city":"Новомиколаївка (Запорізька обл.)"},{"n":"1","lon":24.002454000000000,"lat":47.976807000000000,"addr":"Відділення №1: вул. Польова, 14","city":"Великий Бичків"},{"n":"1","lon":27.233611100000000,"lat":49.033055600000000,"addr":"Відділення №1: вул. Гагаріна, 7а","city":"Віньківці"},{"n":"1","lon":32.071625950000000,"lat":46.993298740000000,"addr":"Відділення № 1: вул. Ольшанського, 1","city":"Мішково-Погорілове"},{"n":"1","lon":37.877114000000000,"lat":48.592617000000000,"addr":"Відділення № 1: вул. Олега Кошового, 42","city":"Часів Яр"},{"n":"1","lon":28.420692000000000,"lat":49.042095000000000,"addr":"Відділення № 1: вул. Перемоги, 14","city":"Сутиски"},{"n":"1","lon":28.392304000000000,"lat":51.076388000000000,"addr":"Відділення: вул. Карла Маркса,23 а","city":"Лугини"},{"n":"1","lon":33.329026186808000,"lat":49.991568386085000,"addr":"Відділення №1: вул. Першотравнева, 3","city":"Ромодан"},{"n":"1","lon":30.229783000000000,"lat":50.445216000000000,"addr":"Відділення: Житомирське шосе, 21 (склад Mary Kay)","city":"Стоянка"},{"n":"1","lon":32.547723000000000,"lat":46.700394000000000,"addr":"Відділення №1: вул. Херсонська, 65/2","city":"Чорнобаївка"},{"n":"1","lon":31.895943000000000,"lat":49.296739000000000,"addr":"Відділення №1: вул. Незалежності, 243","city":"Білозір'я"},{"n":"1","lon":30.214521000000000,"lat":50.545778000000000,"addr":"Відділення №1 : вул. Горького, 8","city":"Буча"},{"n":"1","lon":32.848219871521000,"lat":47.312104048479000,"addr":"Відділення №1: вул. Чехова, 22/1","city":"Березнегувате"},{"n":"1","lon":29.933749000000000,"lat":50.084387000000000,"addr":"Відділення №1: вул. Кірова, 34","city":"Фастів"},{"n":"1","lon":29.060704000000000,"lat":49.227258000000000,"addr":"Відділення: вул. Леніна, 55","city":"Липовець"},{"n":"1","lon":34.524514675140000,"lat":49.557546496607000,"addr":"Відділення №1: вул. Фрунзе, 225","city":"Полтава"},{"n":"1","lon":26.461727000000000,"lat":50.863987000000000,"addr":"Відділення №1: вул. Рівненська, 107","city":"Костопіль"},{"n":"1","lon":23.514072100000000,"lat":49.285793000000000,"addr":"Відділення: вул. Івана Мазепи, 21є","city":"Трускавець"},{"n":"1","lon":28.668822000000000,"lat":49.719109000000000,"addr":"Відділення №1: вул. Київська, 42","city":"Комсомольське (Вінницька обл.)"},{"n":"1","lon":32.790318670000000,"lat":47.062814810000000,"addr":"Відділення: вул. Суворова, 61","city":"Снігурівка"},{"n":"1","lon":36.150371879339000,"lat":49.619922020397000,"addr":"Відділення №1: вул. Леніна, 18","city":"Таранівка"},{"n":"1","lon":30.328049000000000,"lat":50.169266000000000,"addr":"Відділення № 1: вул. Чехова, 3а (територія МРЕВ ДАІ)","city":"Васильків"},{"n":"1","lon":30.449407696724000,"lat":46.247548778236000,"addr":"Відділення: вул. Дзержинського,40","city":"Овідіополь"},{"n":"1","lon":29.533383760000000,"lat":49.189114460000000,"addr":"Відділення №1: вул. Леніна, 107","city":"Оратів"},{"n":"1","lon":29.670419288000000,"lat":46.021348386000000,"addr":"Відділення №1: вул. Котовського, 25","city":"Сарата"},{"n":"1","lon":34.854086000000000,"lat":48.549269000000000,"addr":"Відділення № 1: вул. Центральна, 44а","city":"Кіровське (Дніпропетровськ)"},{"n":"1","lon":29.426511677246000,"lat":45.989078188100000,"addr":"Відділення №1: вул. Ворошилова, 48а","city":"Арциз"},{"n":"1","lon":33.270603418350000,"lat":49.783370029871000,"addr":"Відділення: вул. Карла Маркса, 86/1 (територія автошколи)","city":"Хорол"},{"n":"1","lon":29.207131000000000,"lat":49.100030000000000,"addr":"Відділення №1: вул. Ворошилова, 82","city":"Іллінці"},{"n":"1","lon":31.206536000000000,"lat":46.666756000000000,"addr":"Відділення №1: вул. Степна, 4","city":"Коблеве"},{"n":"1","lon":29.145031000000000,"lat":46.184559000000000,"addr":"Відділення №1: ул. Садова, 88","city":"Тарутине"},{"n":"1","lon":32.612647000000000,"lat":46.661274000000000,"addr":"Відділення №1: просп. Адмірала Сенявіна, 27","city":"Херсон"},{"n":"1","lon":26.626272000000000,"lat":51.318547000000000,"addr":"Відділення №1: вул. Варшавська, 2є","city":"Сарни"},{"n":"1","lon":30.360449900000000,"lat":46.184307000000000,"addr":"Відділення №1: вул. Перемоги, 11а","city":"Білгород-Дністровський"},{"n":"1","lon":30.372085000000000,"lat":50.371545000000000,"addr":"Відділення №1: вул. Балукова, 5","city":"Крюківщина"},{"n":"1","lon":23.297726000000000,"lat":48.174117000000000,"addr":"Відділення №1: вул. Тімірязєва, 37","city":"Хуст"},{"n":"1","lon":28.835666000000000,"lat":48.972662100000000,"addr":"Відділення: вул. Горького, 93","city":"Немирів (Вінниця)"},{"n":"1","lon":36.768561800000000,"lat":46.791881000000000,"addr":"Відділення №1: вул. Юннатів, 10","city":"Бердянськ"},{"n":"1","lon":23.027539000000000,"lat":48.145530000000000,"addr":"Відділення №1: вул. Маяковського, 51","city":"Виноградів"},{"n":"1","lon":29.614576100000000,"lat":45.839113200000000,"addr":"Відділення №1: вул. Тура, 80а","city":"Татарбунари"},{"n":"1","lon":28.503804000000000,"lat":49.012192000000000,"addr":"Відділення №1: вул. Леніна, 38","city":"Тиврів"},{"n":"1","lon":26.559423000000000,"lat":51.566175000000000,"addr":"Відділення №1: вул. Нова, 15","city":"Дубровиця (Рівненська обл.)"},{"n":"1","lon":22.310817710000000,"lat":48.607825560000000,"addr":"Відділення №1: вул. Верещагіна, 16","city":"Ужгород"},{"n":"1","lon":24.145843000000000,"lat":50.239116000000000,"addr":"Відділення №1: вул. Сагайдачного, 47","city":"Великі Мости"},{"n":"1","lon":30.214736000000000,"lat":46.474029000000000,"addr":"Відділення № 1: вул. Кіпенко, 4","city":"Біляївка"},{"n":"1","lon":32.747167000000000,"lat":46.627962000000000,"addr":"Відділення № 1: вул. Крилова, 169а","city":"Цюрупинськ"},{"n":"1","lon":34.412515000000000,"lat":48.592435000000000,"addr":"Відділення №1: вул. Комсомольська, 9","city":"Дніпровське"},{"n":"1","lon":28.607881000000000,"lat":45.686769000000000,"addr":"Відділення: просп. Леніна, 85","city":"Болград (Ізмаїл)"},{"n":"1","lon":24.175137500000000,"lat":47.936074690000000,"addr":"Відділення № 1: вул. Трибушанська, 15","city":"Ділове"},{"n":"1","lon":30.475205000000000,"lat":50.578155000000000,"addr":"Відділення №1: вул. Кургузова, 14","city":"Вишгород"},{"n":"1","lon":29.853943000000000,"lat":47.075631000000000,"addr":"Відділення: вул. Леніна, 105","city":"Велика Михайлівка"},{"n":"1","lon":26.129478000000000,"lat":51.813815000000000,"addr":"Відділення №1: вул. Партизанська, 3","city":"Зарічне(Рівненська обл.)"},{"n":"1","lon":37.243244647980000,"lat":47.776565681194000,"addr":"Відділення №1: вул. Шахтарська, 3","city":"Вугледар"},{"n":"1","lon":30.333333300000000,"lat":46.500000000000000,"addr":"Відділення №1: вул. Генерала Плієва, 15а","city":"Теплодар"},{"n":"1","lon":29.754502000000000,"lat":47.331350000000000,"addr":"Відділення №1: вул. 1-го Травня, 37","city":"Фрунзівка"},{"n":"1","lon":30.852900000000000,"lat":48.019800000000000,"addr":"Відділення №1: вул. Щорса, 6","city":"Першотравенськ (Житомирська обл.)"},{"n":"1","lon":22.968376260000000,"lat":48.623441980000000,"addr":"Відділення № 1: вул. Духновича, 92","city":"Поляна (Закарпатська обл.)"},{"n":"1","lon":25.754001610000000,"lat":48.371132000000000,"addr":"Відділення № 1: вул. Головна, 25","city":"Шипинці"},{"n":"1","lon":30.191421000000000,"lat":47.381137000000000,"addr":"Відділення, вул. Леніна, 139","city":"Ширяєве"},{"n":"1","lon":24.232680000000000,"lat":50.401300000000000,"addr":"Відділення №1: вул. Б. Хмельницького, 65","city":"Червоноград (Львів)"},{"n":"1","lon":31.601908000000000,"lat":49.482429000000000,"addr":"Відділення № 1: вул. Шевченка, 1","city":"Яснозір'я"},{"n":"1","lon":26.144861000000000,"lat":51.427498000000000,"addr":"Відділення №1: вул. Поліська, 1в","city":"Володимирець"},{"n":"1","lon":30.965092000000000,"lat":50.373808000000000,"addr":"Відділення №1: вул. Привокзальна, 21","city":"Бориспіль"},{"n":"1","lon":22.747642993927000,"lat":48.441685862659000,"addr":"Відділення №1: вул. Академіка Морозова, 20","city":"Мукачеве"},{"n":"1","lon":35.003540200000000,"lat":47.387435000000000,"addr":"Відділення №1: вул. Молодіжна, 7","city":"Дніпрорудне"},{"n":"1","lon":31.784241000000000,"lat":51.571521000000000,"addr":"Відділення № 1: вул. Радянська, 13","city":"Березна (Чернігівська обл.)"},{"n":"1","lon":28.750000000000000,"lat":48.533300000000000,"addr":"Відділення №1: вул. Леніна, 221д","city":"Вапнярка"},{"n":"1","lon":30.471528000000000,"lat":46.966296000000000,"addr":"Відділення №1: вул. Леніна, 72","city":"Іванівка(Одеса)"},{"n":"1","lon":27.223109000000000,"lat":51.271685000000000,"addr":"Відділення №1: вул. Івана Франка, 6а","city":"Рокитне(Рівне)"},{"n":"1","lon":26.393090000000000,"lat":50.604300000000000,"addr":"Відділення №1: вул. Радгоспна, 4","city":"Біла Криниця"},{"n":"1","lon":30.371605000000000,"lat":46.027525000000000,"addr":"Відділення №1: вул. Гагаріна, 11","city":"Сергіївка"},{"n":"1","lon":30.947986110000000,"lat":46.820079560000000,"addr":"Відділення №1:просп. 40-річчя Визволення, 2б","city":"Комінтернівське"},{"n":"1","lon":34.241614000000000,"lat":48.481585000000000,"addr":"Відділення: вул. Червона, 2г","city":"Верхівцеве"},{"n":"1","lon":31.522575000000000,"lat":48.964270000000000,"addr":"Відділення № 1: вул. Леніна, 131","city":"Лебедин (Черкаська обл., Шполянський р-н)"},{"n":"1","lon":30.914325714111000,"lat":47.199678363528000,"addr":"Відділення №1: вул. Шевченка, 35","city":"Березівка"},{"n":"1","lon":31.959983000000000,"lat":49.306056000000000,"addr":"Відділення №1: вул. Героїв України, 80б","city":"Хацьки"},{"n":"1","lon":33.487399000000000,"lat":49.455482000000000,"addr":"Відділення № 1: вул. Леніна, 46","city":"Великі Кринки (Глобинський р-н)"},{"n":"1","lon":30.752836000000000,"lat":47.538947000000000,"addr":"Відділення №1: вул. Калініна, 70","city":"Миколаївка (Одеса)"},{"n":"1","lon":31.066666700000000,"lat":49.016666700000000,"addr":"Відділення №1: вул. Ювілейна, 25","city":"Ватутіне"},{"n":"1","lon":25.738116000000000,"lat":49.902695000000000,"addr":"Відділення №1: вул. Майдан Шевченка, 18","city":"Вишнівець"},{"n":"1","lon":28.284089000000000,"lat":45.451664000000000,"addr":"Відділення №1: вул. Шевченка, 29","city":"Рені"},{"n":"1","lon":23.904652000000000,"lat":49.716464000000000,"addr":"Відділення №1: вул. Грушевського, 11а","city":"Пустомити"},{"n":"1","lon":23.851388900000000,"lat":49.066944400000000,"addr":"Відділення: вул. Петрушевича, 4","city":"Болехів"},{"n":"1","lon":29.275215000000000,"lat":45.443022000000000,"addr":"Відділення №1: вул. Перекопської дивізії, 19 ","city":"Кілія"},{"n":"1","lon":34.984862000000000,"lat":47.248731000000000,"addr":"Відділення № 1: вул. Колгоспна, 2б","city":"Мала Білозерка"},{"n":"1","lon":30.328922800000000,"lat":50.307196400000000,"addr":"Відділення №1: вул. Шевченка, 193","city":"Боярка"},{"n":"1","lon":37.307040000000000,"lat":47.051969000000000,"addr":"Відділення: вул. Леніна,109","city":"Мангуш"},{"n":"1","lon":35.247777800000000,"lat":49.196944400000000,"addr":"Відділення №1: пров. Новоселівський, 2","city":"Зачепилівка"},{"n":"1","lon":37.316436767578000,"lat":47.200968617404000,"addr":"Відділення №1: вул. Леніна, 83а","city":"Володарське"},{"n":"1","lon":30.559817310000000,"lat":48.809086840000000,"addr":"Відділення № 1: вул. Комсомольська, 48","city":"Тальянки"},{"n":"1","lon":36.399528980255000,"lat":48.345119008345000,"addr":"Відділення: вул. Жовтнева, 25","city":"Першотравенськ (Дніпропетровська обл)"},{"n":"1","lon":22.584788000000000,"lat":48.475155000000000,"addr":"Відділення №1: вул. Європейська, 177","city":"Ракошино"},{"n":"1","lon":22.639964690000000,"lat":48.202583320000000,"addr":"Відділення № 1: вул. Богдана Хмельницького, 43","city":"Берегове"},{"n":"1","lon":23.464758140000000,"lat":49.374388860000000,"addr":"Відділення №1: вул. Дрогобицька, 35а","city":"Лішня"},{"n":"1","lon":31.548350000000000,"lat":46.612911000000000,"addr":"Відділення: вул. Леніна, 21/2","city":"Очаків"},{"n":"1","lon":30.945804202408000,"lat":50.445230594470000,"addr":"Відділення №1: вул. Гоголя, 45б","city":"Дударків"},{"n":"1","lon":35.754670180000000,"lat":49.294044550000000,"addr":"Відділення №1: вул. Волошина, 37","city":"Кегичівка"},{"n":"1","lon":33.416666700000000,"lat":46.833333300000000,"addr":"Відділення №1: вул. Леніна, 224","city":"Берислав (Херсонська обл.)"},{"n":"1","lon":23.631437790000000,"lat":48.151140920000000,"addr":"Відділення № 1: вул. Леніна, 91ф","city":"Угля"},{"n":"1","lon":23.005257000000000,"lat":48.347045000000000,"addr":"Відділення № 1: вул. Центральна, 75а","city":"Брід"},{"n":"1","lon":32.008258000000000,"lat":46.960380000000000,"addr":"Відділення №1: вул. 1-а Слобідська, 62","city":"Миколаїв"},{"n":"1","lon":35.870241000000000,"lat":49.152936000000000,"addr":"Відділення №1: вул. Південновокзальна, 3","city":"Сахновщина"},{"n":"1","lon":30.793541000000000,"lat":48.005810000000000,"addr":"Відділення №1: вул. Леніна, 46","city":"Кінецьпіль"},{"n":"1","lon":24.752875600000000,"lat":48.553695640000000,"addr":"Відділення № 1: вул. Незалежності, 92","city":"Ланчин"},{"n":"1","lon":31.515581999990000,"lat":50.567113509341000,"addr":"Відділення № 1: вул. Поштова, 15","city":"Нова Басань"},{"n":"1","lon":25.465264000000000,"lat":50.266741000000000,"addr":"Відділення №1: вул. Берестецька, 128","city":"Козин (Рівненська обл.)"},{"n":"1","lon":26.250533000000000,"lat":50.524396000000000,"addr":"Відділення №1: вул. Незалежності, 20","city":"Здолбунів"},{"n":"1","lon":32.454727640000000,"lat":46.454212780000000,"addr":"Відділення №1: просп. Гагаріна, 1а","city":"Нова Збур'ївка"},{"n":"1","lon":30.831604000000000,"lat":50.517213000000000,"addr":"Відділення №1: вул. Кутузова, 125","city":"Бровари"},{"n":"1","lon":31.775454000000000,"lat":47.308514000000000,"addr":"Відділення: вул. Леніна, 175","city":"Нова Одеса"},{"n":"1","lon":30.183490000000000,"lat":48.738591000000000,"addr":"Відділення №1: вул. Індустріальна, 14а","city":"Умань"},{"n":"1","lon":22.826784000000000,"lat":49.524606000000000,"addr":"Відділення №1: вул. Хирівська, 133","city":"Хирів"},{"n":"1","lon":23.725337420000000,"lat":49.721194660000000,"addr":"Відділення №1: вул. Львівська, 76","city":"Великий Любінь"},{"n":"1","lon":31.230598000000000,"lat":47.356856000000000,"addr":"Відділення №1: вул. Леніна, 30","city":"Веселинове"},{"n":"1","lon":31.482865000000000,"lat":49.051659000000000,"addr":"Відділення № 1: вул. Радянська, 1","city":"Сигнаївка"},{"n":"1","lon":32.436951398849000,"lat":47.404652516039000,"addr":"Відділення: вул. Театральна, 1","city":"Баштанка"},{"n":"1","lon":23.941956000000000,"lat":49.901846000000000,"addr":"Відділення №1: вул. Сухомлинського, 2","city":"Брюховичі"},{"n":"1","lon":26.519550000000000,"lat":50.328486000000000,"addr":"Відділення: вул. Князів Острозьких, 3","city":"Острог"},{"n":"1","lon":25.703288000000000,"lat":49.293822000000000,"addr":"Відділення: вул. 22 січня","city":"Теребовля"},{"n":"1","lon":23.875052970000000,"lat":49.147976440000000,"addr":"Відділення №1: вул. Привокзальна, 53б","city":"Моршин"},{"n":"1","lon":30.531441000000000,"lat":50.344532000000000,"addr":"Відділення №1: вул. Червонопрапорна, 154","city":"Київ"},{"n":"1","lon":30.176138877869000,"lat":49.781361045728000,"addr":"Відділення №1: вул. 1-ша Радгоспна, 5","city":"Біла Церква"},{"n":"1","lon":34.595732688904000,"lat":49.958198697509000,"addr":"Відділення: вул. Жовтнева, 21","city":"Опішня"},{"n":"1","lon":36.060575100000000,"lat":48.524466700000000,"addr":"Відділення: вул. Харківська, 3","city":"Тернівка"},{"n":"1","lon":33.601921000000000,"lat":46.187188000000000,"addr":"Відділення №1: пров. Шкільний, 2","city":"Червоний Чабан"},{"n":"1","lon":32.508520781994000,"lat":47.688412140846000,"addr":"Відділення: вул. Червона Площа, 26","city":"Новий Буг"},{"n":"1","lon":25.335714000000000,"lat":50.431613000000000,"addr":"Відділення №1: вул. 17-го Вересня, 10","city":"Демидівка"},{"n":"1","lon":31.092560500000000,"lat":48.175490240000000,"addr":"Відділення №1:вул. Велика, 89б","city":"Лиса Гора"},{"n":"1","lon":32.826246000000000,"lat":47.839261000000000,"addr":"Відділення №1: вул. Миру, 222","city":"Казанка"},{"n":"1","lon":28.837753000000000,"lat":49.713779000000000,"addr":"Відділення №1: вул. Винниченка, 13/2а","city":"Козятин"},{"n":"1","lon":25.607129000000000,"lat":50.512972000000000,"addr":"Відділення №1: вул. Кірова, 1","city":"Млинів"},{"n":"1","lon":34.983157000000000,"lat":50.477579000000000,"addr":"Відділення: вул. Горького, 58","city":"Тростянець (Охтирка)"},{"n":"1","lon":37.275775000000000,"lat":47.990282000000000,"addr":"Відділення №1: вул. Грушева, 28","city":"Курахове"},{"n":"1","lon":26.261543240000000,"lat":48.152307460000000,"addr":"Відділення №1: вул. Горького, 12","city":"Герца"},{"n":"1","lon":32.187153000000000,"lat":47.112499740000000,"addr":"Відділення № 1: вул. Істоміна, 1","city":"Пересадівка"},{"n":"1","lon":26.825906370000000,"lat":48.471910220000000,"addr":"Відділення №1: вул. Жукова, 24в","city":"Кельменці"},{"n":"1","lon":32.028873100000000,"lat":49.685951000000000,"addr":"Відділення №1: вул. Обухова, 20","city":"Золотоноша"},{"n":"1","lon":31.749112000000000,"lat":48.244155000000000,"addr":"Відділення: вул. Кірова, 126 а","city":"Рівне (Новоукраїнський р-н Кіровоградська обл.)"},{"n":"1","lon":29.620594000000000,"lat":47.935663000000000,"addr":"Відділення №1: вул. Ломоносова, 24а","city":"Балта"},{"n":"1","lon":36.528055600000000,"lat":49.598333300000000,"addr":"Відділення №1: вул. Шевченка, 2","city":"Комсомольське (Харків)"},{"n":"1","lon":23.628545400000000,"lat":50.229108300000000,"addr":"Відділення: вул. Коновальця, 25/27","city":"Рава-Руська"},{"n":"1","lon":29.539200067520000,"lat":47.737398472681000,"addr":"Відділення №1: вул. 50 років Жовтня, 192","city":"Котовськ"},{"n":"1","lon":26.735532320000000,"lat":50.999370220000000,"addr":"Відділення №1: вул. Андріївська, 66","city":"Березне"},{"n":"1","lon":27.412677320000000,"lat":48.448906380000000,"addr":"Відділення: вул. Шевченка, 5","city":"Сокиряни"},{"n":"1","lon":28.843726000000000,"lat":45.355347000000000,"addr":"Відділення № 1: вул. Некрасова, 3а","city":"Ізмаїл"},{"n":"1","lon":29.454501000000000,"lat":47.542226000000000,"addr":"Відділення №1: вул. Першотравнева, 11","city":"Красні Окни"},{"n":"1","lon":31.643611100000000,"lat":51.374722200000000,"addr":"Відділення №1: вул. Щорса, 97","city":"Куликівка"},{"n":"1","lon":24.682700000000000,"lat":48.902619000000000,"addr":"Відділення №1: вул. Мазепи, 175б (в’їзд з вул. Довженка, територія бази \"Гурман\")","city":"Івано-Франківськ"},{"n":"1","lon":30.551046700000000,"lat":46.584253030000000,"addr":"Відділення №1: вул. Леніна, 78","city":"Дачне"},{"n":"1","lon":29.957973000000000,"lat":47.719911000000000,"addr":"Відділення: вул. Незалежності, 19","city":"Ананьїв"},{"n":"1","lon":32.723611100000000,"lat":50.495000000000000,"addr":"Відділення №1: вул. Миру, 26","city":"Варва"},{"n":"1","lon":27.133182000000000,"lat":50.641427000000000,"addr":"Відділення №1: с. Гвоздів, вул. Перемоги, 2г","city":"Корець"},{"n":"1","lon":26.140758000000000,"lat":49.525653000000000,"addr":"Відділення №1: вул. Лисенка, 20 А","city":"Підволочиськ"},{"n":"1","lon":37.277111000000000,"lat":49.191621000000000,"addr":"Відділення №1: вул. Соборна, 46","city":"Ізюм"},{"n":"1","lon":32.323055600000000,"lat":49.670555600000000,"addr":"Відділення: вул. Черкаська, 18","city":"Чорнобай"},{"n":"1","lon":26.684200000000000,"lat":50.609030000000000,"addr":"Відділення №1: вул. А. Ковпака, 2а","city":"Гоща"},{"n":"1","lon":32.928826000000000,"lat":50.669688000000000,"addr":"Відділення: вул. Леніна, 25","city":"Срібне"},{"n":"1","lon":30.642855000000000,"lat":46.312125000000000,"addr":"Відділення №1: вул. Промислова, 14","city":"Іллічівськ"},{"n":"1","lon":32.153354000000000,"lat":49.965926000000000,"addr":"Відділення №1: вул. Леніна, 39","city":"Драбів"},{"n":"1","lon":33.141699000000000,"lat":50.838214000000000,"addr":"Відділення №1: вул. Леніна, 26","city":"Талалаївка"},{"n":"1","lon":26.216774500000000,"lat":49.535885300000000,"addr":"Відділення №1: вул. Незалежності, 13","city":"Волочиськ"},{"n":"1","lon":35.262729000000000,"lat":50.771441000000000,"addr":"Відділення №1: вул. Перемоги, 49","city":"Краснопілля (Сумська обл.)"},{"n":"1","lon":35.476234853268000,"lat":50.426754996568000,"addr":"Відділення: вул. Борців Революції, 23","city":"Велика Писарівка"},{"n":"1","lon":32.396427860000000,"lat":50.862132680000000,"addr":"Відділення №1: вул. Коваля, 1","city":"Ічня"},{"n":"1","lon":25.733333300000000,"lat":48.650000000000000,"addr":"Відділення №1: вул. Стефаника, 26а","city":"Заліщики"},{"n":"1","lon":31.411400000000000,"lat":49.756003000000000,"addr":"Відділення №1: вул. Дорошенко, 5а","city":"Канів"},{"n":"1","lon":23.647760800000000,"lat":49.781478000000000,"addr":"Відділення №1: вул. Львівська, 64","city":"Городок(Львів)"},{"n":"1","lon":31.580220000000000,"lat":50.937478000000000,"addr":"Відділення №1: вул. Вокзальна, 2","city":"Носівка"},{"n":"1","lon":32.647896000000000,"lat":49.087072900000000,"addr":"Відділення: вул. Комсомольська, 17","city":"Чигирин"},{"n":"1","lon":26.033220291138000,"lat":48.807078973749000,"addr":"Відділення №1: вул. М.Кривоноса, 2","city":"Борщів"},{"n":"1","lon":22.999751000000000,"lat":49.443877000000000,"addr":"Відділення №1: вул. Л.Галицького, 42/8а","city":"Старий Самбір"},{"n":"1","lon":33.793604600000000,"lat":50.563692400000000,"addr":"Відділення: 3-й провулок Роменської, 1","city":"Липова Долина"},{"n":"1","lon":26.192796000000000,"lat":49.072196000000000,"addr":"Відділення №1: вул. Тернопільська, 1","city":"Гусятин"},{"n":"1","lon":32.095281900000000,"lat":49.031983900000000,"addr":"Відділення №1: вул. Гагаріна, 1","city":"Кам'янка (Черкаси)"},{"n":"1","lon":31.381225000000000,"lat":50.749338000000000,"addr":"Відділення №1: вул. Незалежності,  65а (приміщення будинку \"Побуту\")","city":"Бобровиця"},{"n":"1","lon":31.280433000000000,"lat":49.427690000000000,"addr":"Відділення №1: вул. Червоноармійська, 12а","city":"Корсунь-Шевченківський"},{"n":"1","lon":23.033075000000000,"lat":49.153603000000000,"addr":"Відділення: площа Ринок, 13/2","city":"Турка"},{"n":"1","lon":33.876944400000000,"lat":50.834722200000000,"addr":"Відділення: вул. Леніна, 24","city":"Недригайлів (Сумська обл.)"},{"n":"1","lon":31.113060000000000,"lat":50.919299000000000,"addr":"Відділення №1: вул. Комсомольська, 40","city":"Козелець"},{"n":"1","lon":23.514010000000000,"lat":49.038673000000000,"addr":"Відділення: Майдан Незалежності, 7","city":"Сколе"},{"n":"1","lon":33.825140000000000,"lat":51.204182000000000,"addr":"Відділення № 1: пл. Першотравнева, 1","city":"Буринь"},{"n":"1","lon":25.151963000000000,"lat":49.652012900000000,"addr":"Відділення №1: вул. Б.Хмельницького, 58","city":"Зборів"},{"n":"1","lon":30.823333300000000,"lat":49.256944400000000,"addr":"Відділення №1: вул. Кірова, 4","city":"Лисянка"},{"n":"1","lon":31.096655000000000,"lat":51.800475000000000,"addr":"Відділення: вул. Любецька, 5","city":"Ріпки"},{"n":"1","lon":24.133496570000000,"lat":49.385334810000000,"addr":"Відділення №1: вул. Міцкевича, 9","city":"Жидачів"},{"n":"1","lon":34.036111100000000,"lat":52.183888900000000,"addr":"Відділення: вул. Василівська, 3","city":"Середина-Буда"},{"n":"1","lon":25.154795000000000,"lat":49.437696000000000,"addr":"Відділення №1: вул. Привітна, 16","city":"Козова"},{"n":"1","lon":30.965054000000000,"lat":49.072322000000000,"addr":"Відділення №1: вул. Тараса Шевченка, 4","city":"Звенигородка"},{"n":"1","lon":24.948174000000000,"lat":49.447613000000000,"addr":"Відділення №1: вул. Привокзальна, 1","city":"Бережани"},{"n":"1","lon":24.133333300000000,"lat":49.471944400000000,"addr":"Відділення: вул. Яворницького,8","city":"Новий Розділ"},{"n":"1","lon":33.776589000000000,"lat":51.948799000000000,"addr":"Відділення: бульв. Ювілейний, 6","city":"Ямпіль(Шостка)"},{"n":"1","lon":30.962493000000000,"lat":48.948157000000000,"addr":"Відділення №1: вул. Леніна, 47","city":"Катеринопіль"},{"n":"1","lon":26.999425000000000,"lat":50.827558000000000,"addr":"Відділення №1: вул. Шевченка, 29","city":"Соснове"},{"n":"1","lon":26.114541000000000,"lat":50.114830000000000,"addr":"Відділення №1: вул. Українська, 36","city":"Шумськ"},{"n":"1","lon":30.588217000000000,"lat":47.859518000000000,"addr":"Відділення №1: вул. Героїв Врадіївщини, 162","city":"Врадіївка"},{"n":"1","lon":25.136111100000000,"lat":49.269444400000000,"addr":"Відділення №1: вул. Бережанська, 2","city":"Підгайці"},{"n":"1","lon":30.708054000000000,"lat":48.880570000000000,"addr":"Відділення №1: вул. Соборна, 20","city":"Тальне"},{"n":"1","lon":25.991676000000000,"lat":51.308516000000000,"addr":"Відділення №1: вул. Садова, 31","city":"Рафалівка"},{"n":"1","lon":34.552439000000000,"lat":48.610919000000000,"addr":"Відділення №1: бул. Незалежності, 2а","city":"Дніпродзержинськ"},{"n":"1","lon":34.615061000000000,"lat":50.946240000000000,"addr":"Відділення №1: вул. Кооперативна, 1а","city":"Степанівка (Сумська обл.)"},{"n":"1","lon":26.088980000000000,"lat":49.863945000000000,"addr":"Відділення №1: вул. Грушевського, 2","city":"Ланівці"},{"n":"1","lon":30.986370000000000,"lat":47.626691000000000,"addr":"Відділення №1: вул. Леніна, 32","city":"Доманівка"},{"n":"1","lon":25.169444400000000,"lat":49.088888900000000,"addr":"Відділення №1: вул. Шевченка, 15 (прохідна тютюнової фабрики)","city":"Монастириська"},{"n":"1","lon":31.396228000000000,"lat":49.004201000000000,"addr":"Відділення: вул. Леніна, 67","city":"Шпола"},{"n":"1","lon":24.878147769970000,"lat":48.515988663120000,"addr":"Відділення №1: вул. Лесі Українки, 2","city":"Печеніжин"},{"n":"1","lon":25.381715900000000,"lat":49.064831000000000,"addr":"Відділення №1: вул. Шухевича, 28","city":"Бучач"},{"n":"1","lon":23.441412450193000,"lat":49.284395274544000,"addr":"Відділення №1: вул. Коваліва, 4","city":"Борислав (Львівська обл.)"},{"n":"1","lon":28.718254000000000,"lat":49.341130000000000,"addr":"Відділення №1: вул. Маяковського, 8","city":"Турбів"},{"n":"1","lon":31.307754000000000,"lat":47.903659000000000,"addr":"Відділення №1: вул. Набережна, 170","city":"Арбузинка"},{"n":"1","lon":31.458055600000000,"lat":49.292500000000000,"addr":"Відділення №1: вул. Миру, 107а","city":"Городище (Черкаси)"},{"n":"1","lon":24.101539313154000,"lat":49.327179253502000,"addr":"Відділення №1: вул. Грушевського, 3а","city":"Гніздичів"},{"n":"1","lon":31.310500000000000,"lat":48.286600000000000,"addr":"Відділення № 1: вул. Комсомольська, 20","city":"Піщаний Брід"},{"n":"1","lon":34.688933999990000,"lat":47.428858525000000,"addr":"Відділення №1: вул. Кир'яненко, 62","city":"Нововодяне"},{"n":"1","lon":28.160900000000000,"lat":49.110192000000000,"addr":"Відділення № 1: вул. Леніна, 11а","city":"Браїлів"},{"n":"1","lon":31.572896000000000,"lat":47.863899000000000,"addr":"Відділення №1: вул. Леніна, 73","city":"Братське"},{"n":"1","lon":23.576506000000000,"lat":48.007275000000000,"addr":"Відділення №1: вул. Листопада, 53","city":"Тячів"},{"n":"1","lon":39.028134000000000,"lat":49.699885000000000,"addr":"Відділення №1: вул. 1-го Травня, 14","city":"Білолуцьк"},{"n":"1","lon":28.388822000000000,"lat":49.255982000000000,"addr":"Відділення №1: вул. Інтернаціональна, 20а","city":"Зарванці"},{"n":"1","lon":31.852111816406000,"lat":47.699519975321000,"addr":"Відділення №1: вул. Карла Маркса, 125","city":"Єланець"},{"n":"1","lon":24.209750000000000,"lat":48.061604000000000,"addr":"Відділення: вул. Карпатська, 12","city":"Рахів"},{"n":"1","lon":25.842933654785000,"lat":48.522545296072000,"addr":"ВІдділення №1: вул. Незалежності, 91","city":"Заставна"},{"n":"1","lon":31.277100000000000,"lat":47.690094000000000,"addr":"Відділення №1: вул. Генерала Подзигуна, 167а","city":"Олександрівка (Миколаївська обл.)"},{"n":"1","lon":24.252499000000000,"lat":51.629856000000000,"addr":"Відділення №1: вул. Незалежності, 3","city":"Заболоття (Волинська обл.)"},{"n":"1","lon":25.071101030000000,"lat":48.008493130000000,"addr":"Відділення №1: вул. Українська, 34","city":"Путила"},{"n":"1","lon":23.905553000000000,"lat":49.824576000000000,"addr":"Відділення №1: вул. Тичини, 2а","city":"Зимна Вода"},{"n":"1","lon":28.683108000000000,"lat":49.103946000000000,"addr":"Відділення №1: вул. Леніна, 23","city":"Вороновиця"},{"n":"1","lon":30.270166000000000,"lat":47.838365000000000,"addr":"Відділення: вул. Кірова, 92д","city":"Любашівка"},{"n":"1","lon":23.049587000000000,"lat":48.317952000000000,"addr":"Відділення №1: вул. Заводська, 10","city":"Іршава"},{"n":"1","lon":29.847082000000000,"lat":49.073467000000000,"addr":"Відділення № 1:вул. Ватутіна, 2","city":"Цибулів"},{"n":"1","lon":28.294881000000000,"lat":48.686137000000000,"addr":"Відділення №1: вул. Смавзюка, 34","city":"Джурин (Шаргородський р-н.)"},{"n":"1","lon":30.083237000000000,"lat":48.134776000000000,"addr":"Відділення №1: вул. Леніна, 15","city":"Саврань"},{"n":"1","lon":25.927897000000000,"lat":48.089447000000000,"addr":"Відділення №1: вул. Головна, 99","city":"Глибока"},{"n":"1","lon":22.989468000000000,"lat":49.335566000000000,"addr":"Відділення №1: вул. Шевченка, 3а","city":"Стрілки"},{"n":"1","lon":28.316638180000000,"lat":48.153644580000000,"addr":"Відділення №1: вул. 50-річчя Жовтня, 5","city":"Цекинівка"},{"n":"1","lon":32.586225000000000,"lat":50.517282000000000,"addr":"Відділення №1: вул. Миру, 75а","city":"Ладан"},{"n":"1","lon":29.124891000000000,"lat":48.094743000000000,"addr":"Відділення №1: вул. Леніна, 89","city":"Кодима"},{"n":"1","lon":34.332656000000000,"lat":46.348561000000000,"addr":"Відділення: вул. Пушкіна, 8 а","city":"Новотроїцьке (Херсонська обл.)"},{"n":"1","lon":33.728000000000000,"lat":47.007000000000000,"addr":"Відділення №1: вул. Леніна, 130","city":"Горностаївка"},{"n":"1","lon":22.989457000000000,"lat":48.543173485432000,"addr":"Відділення №1: вул. Достоєвського, 20/2","city":"Свалява"},{"n":"1","lon":28.476975000000000,"lat":49.227184000000000,"addr":"Відділення №1: вул. Гліба Успенського, 91","city":"Вінниця"},{"n":"1","lon":33.944414000000000,"lat":47.176008000000000,"addr":"Відділення №1: вул. Чкалова, 25","city":"Велика Лепетиха"},{"n":"1","lon":23.204068000000000,"lat":48.716553000000000,"addr":"Відділення №1: вул. Карпатська, 100","city":"Воловець"},{"n":"1","lon":34.360000000000000,"lat":47.241388900000000,"addr":"Відділення: пров. Поштовий, 4/4","city":"Верхній Рогачик"},{"n":"1","lon":23.501763050000000,"lat":48.526069250000000,"addr":"Відділення: вул. Туряниці, 1","city":"Міжгір'я"},{"n":"1","lon":27.623055600000000,"lat":49.595833300000000,"addr":"Відділення: вул. Грушевського, 62","city":"Стара Синява"},{"n":"1","lon":22.468156000000000,"lat":48.734144000000000,"addr":"Відділення №1: вул. Жовтнева, 79","city":"Перечин"},{"n":"1","lon":27.516666700000000,"lat":50.116666700000000,"addr":"Відділення №1: вул. Ходякова, 27е","city":"Полонне"},{"n":"1","lon":22.452085018158000,"lat":48.883809656768000,"addr":"Відділення: вул. Штефаника, 3","city":"Великий Березний"},{"n":"1","lon":36.359547600000000,"lat":49.694406400000000,"addr":"Відділення №1: вул. Червоноармійська, 21а","city":"Зміїв"},{"n":"1","lon":37.683526575565000,"lat":49.852407616366000,"addr":"Відділення №1: вул. 35-ї Гвардiйської дивiзiї, 20","city":"Дворічна"},{"n":"1","lon":26.874129000000000,"lat":50.303431000000000,"addr":"Відділення №1: вул. Миру, 104","city":"Славута"},{"n":"1","lon":37.175840740000000,"lat":49.695477890000000,"addr":"Відділення: вул. Леніна, 4","city":"Шевченкове (Харківська обл.)"},{"n":"1","lon":26.838670000000000,"lat":50.118730900000000,"addr":"Відділення №1: вул. Заславська, 6","city":"Ізяслав"},{"n":"1","lon":37.379440516233000,"lat":50.056360165064000,"addr":"Відділення: вул. Радянська, 57","city":"Великий Бурлук"},{"n":"1","lon":36.938140690327000,"lat":49.863816704285000,"addr":"Відділення №1: пров. Богдана Хмельницького, 1","city":"Печеніги"},{"n":"1","lon":26.415962500000000,"lat":50.004932440000000,"addr":"Відділення №1: вул. Бондарчука, 1","city":"Білогір'я"},{"n":"1","lon":37.018444000000000,"lat":48.901313000000000,"addr":"Відділення №1: вул. Першотравнева, 6б","city":"Барвінкове"},{"n":"1","lon":26.411944400000000,"lat":49.841944400000000,"addr":"Відділення: вул. Б. Хмельницького, 2","city":"Теофіполь"},{"n":"1","lon":37.625555600000000,"lat":49.376388900000000,"addr":"Відділення №1: вул. Миру, 40 а","city":"Борова (Харків)"},{"n":"1","lon":36.216666700000000,"lat":49.383333300000000,"addr":"Відділення: вул. Бугайченка, 36","city":"Первомайський (Харківська обл.)"},{"n":"1","lon":29.966666700000000,"lat":48.833333300000000,"addr":"Відділення: вул. Урицького, 44","city":"Христинівка"},{"n":"1","lon":35.861195549369000,"lat":49.718777622283000,"addr":"Відділення: вул. Гагаріна, 1 (готель \"Центральний\")","city":"Нова Водолага"},{"n":"1","lon":29.801111100000000,"lat":48.990000000000000,"addr":"Відділення: вул. Чапаєва, 36","city":"Монастирище"},{"n":"1","lon":30.096300000000000,"lat":49.245597000000000,"addr":"Відділення №1: вул. Миру, 9","city":"Жашків"},{"n":"1","lon":35.621064752340000,"lat":49.841094432158000,"addr":"Відділення №1: вул. Лібкнехта Карла, 11а","city":"Валки"},{"n":"1","lon":30.336142000000000,"lat":48.964054000000000,"addr":"Віділення: вул. Шевченка, 22","city":"Маньківка"},{"n":"1","lon":34.863718000000000,"lat":49.654567000000000,"addr":"Відділення №1: вул. Леніна, 4","city":"Коломак"},{"n":"1","lon":30.447300000000000,"lat":48.379900000000000,"addr":"Відділення №1: вул. 50 років Жовтня, 1","city":"Голованівськ"},{"n":"1","lon":35.169003900000000,"lat":50.065606540000000,"addr":"Відділення №1: вул. Леніна, 132в","city":"Краснокутськ"},{"n":"1","lon":35.520398765802000,"lat":50.161001241422000,"addr":"Відділення: вул. Шевченка, 10","city":"Богодухів"},{"n":"1","lon":29.866991000000000,"lat":48.344253000000000,"addr":"Відділення №1: вул. Кірова, 3є","city":"Гайворон"},{"n":"1","lon":36.272000000000000,"lat":49.974016000000000,"addr":"Відділення №1: вул. Польова, 67","city":"Харків"},{"n":"1","lon":35.977535694838000,"lat":50.277463594700000,"addr":"Відділення №1: вул. 1 Травня, 2а","city":"Золочів(Харківська обл.)"},{"n":"1","lon":30.231700000000000,"lat":48.322300000000000,"addr":"Відділення №1: пров. Леніна, 4а","city":"Ульяновка (Кіровоградська обл.)"},{"n":"1","lon":33.283749000000000,"lat":46.260820000000000,"addr":"ВІдділення №1: вул. Піонерська, 77-а","city":"Каланчак"},{"n":"1","lon":30.877388000000000,"lat":48.235201000000000,"addr":"Відділення №1: вул. Лагодни, 17","city":"Вільшанка (Кіровоградська обл.)"},{"n":"1","lon":33.530202800000000,"lat":46.362875000000000,"addr":"Відділення: вул. Радянська, 2а","city":"Чаплинка (Херсонска обл.)"},{"n":"1","lon":30.341816000000000,"lat":47.949173522357000,"addr":"Відідлення №1: вул. Набережна, 21","city":"Криве Озеро"},{"n":"1","lon":29.678729000000000,"lat":49.371847000000000,"addr":"Відділення: вул. Комсомольська, 3 ц","city":"Тетіїв"},{"n":"1","lon":37.688427000000000,"lat":48.501651000000000,"addr":"Відділення №1: вул. Громова, 6","city":"Костянтинівка (Донецька обл.)"},{"n":"1","lon":31.526900000000000,"lat":48.315500000000000,"addr":"Відділення №1: вул. Леніна, 62","city":"Новоукраїнка"},{"n":"1","lon":30.191451000000000,"lat":49.387560000000000,"addr":"ВІдділення: вул. Леніна, 7а","city":"Ставище"},{"n":"1","lon":37.595622539520000,"lat":48.726062296495000,"addr":"Відділення №1: вул. Ювілейна, 17 (Декор Сервис)","city":"Краматорськ"},{"n":"1","lon":32.212900000000000,"lat":48.249800000000000,"addr":"Відділення №1: вул. Калініна, 27","city":"Компаніївка"},{"n":"1","lon":30.474278000000000,"lat":49.684652000000000,"addr":"Відділення: вул. Першотравнева, 13","city":"Рокитне(Біла Церква)"},{"n":"1","lon":30.505610000000000,"lat":49.562368000000000,"addr":"Відділення №1: вул. Радянська, 2а","city":"Тараща"},{"n":"1","lon":25.500277800000000,"lat":48.667500000000000,"addr":"Відділення №1: вул. Чупринки, 12/1","city":"Городенка"},{"n":"1","lon":30.865186000000000,"lat":49.537721000000000,"addr":"Відділення: вул. Франка, 21","city":"Богуслав (Київська обл.)"},{"n":"1","lon":30.981044000000000,"lat":49.655683000000000,"addr":"Відділення №1: вул. Леніна, 50","city":"Миронівка"},{"n":"1","lon":24.998563000000000,"lat":48.862582000000000,"addr":"Відділення: вул. Ольги Кобилянської,1","city":"Тлумач"},{"n":"1","lon":24.846366680000000,"lat":48.903557170000000,"addr":"Відділення №1: вул. Галицька, 62/2","city":"Тисмениця"},{"n":"1","lon":30.827904939651000,"lat":49.863809788406000,"addr":"Відділення №1: вул. Незалежності, 22","city":"Кагарлик"},{"n":"1","lon":26.846469000000000,"lat":48.887989000000000,"addr":"Відділення №1: вул. Красінських, 20а","city":"Дунаївці"},{"n":"1","lon":33.449542000000000,"lat":48.900680000000000,"addr":"Відділення №1: вул. 50-річчя Жовтня, 16","city":"Онуфріївка"},{"n":"1","lon":27.271500000000000,"lat":48.835007190000000,"addr":"Відділення №1: вул. Подільська, 10/2","city":"Нова Ушиця"},{"n":"1","lon":33.860378000000000,"lat":48.045071000000000,"addr":"Відділення №1: вул. Жовтнева, 59/1","city":"Софіївка(Дніпропетровська обл.)"},{"n":"1","lon":37.201638221741000,"lat":48.271939809016000,"addr":"Відділення №1: вул. Артема, 169 (АЗС УкрТАТ Нафта)","city":"Красноармійськ"},{"n":"1","lon":29.810988000000000,"lat":50.462507000000000,"addr":"Відділення №1: вул. Комсомольська, 1","city":"Макарів"},{"n":"1","lon":33.263950000000000,"lat":47.684724000000000,"addr":"Відділення №1: вул. Леніна, 104а","city":"Широке"},{"n":"1","lon":35.449898000000000,"lat":49.374000000000000,"addr":"Відділення №1: вул. Харківська, 115","city":"Красноград (Харківська обл)"},{"n":"1","lon":29.947900000000000,"lat":50.648407000000000,"addr":"Відділення №1: вул. Леніна, 248/1","city":"Бородянка"},{"n":"1","lon":33.718794000000000,"lat":47.662857000000000,"addr":"Відділення №1: вул. Визволення, 21","city":"Апостолове"},{"n":"1","lon":25.720249000000000,"lat":50.116131000000000,"addr":"Відділення №1: вул. Березина, 34","city":"Кременець"},{"n":"1","lon":29.902898000000000,"lat":50.934764000000000,"addr":"Відділення №1: вул. Київська, 23","city":"Іванків (Іванківський р-н)"},{"n":"1","lon":33.907569000000000,"lat":47.506898000000000,"addr":"Відділення № 1: вул. Суворова, 2а","city":"Нововоронцовка"},{"n":"1","lon":31.316666700000000,"lat":50.353888900000000,"addr":"Відділення: вул. Жовтнева, 69 (маг. \"Павлуша\" (ПашаМото)","city":"Баришівка"},{"n":"1","lon":33.530476400000000,"lat":47.493308010000000,"addr":"Відділення №1: вул. Червоногвардійська, 55","city":"Високопілля"},{"n":"1","lon":34.477222200000000,"lat":50.579722200000000,"addr":"Відділення: площа Інтернаціональна, 20","city":"Лебедин (Сумська обл.)"},{"n":"1","lon":33.297817000000000,"lat":47.317127000000000,"addr":"Відділення № 1: вул. Братська, 17","city":"Велика Олександрівка (Херсонська обл.)"},{"n":"1","lon":38.404604500000000,"lat":48.922759796108000,"addr":"Відділення №1: вул. Свердлова, 355","city":"Лисичанськ"},{"n":"1","lon":31.782334000000000,"lat":50.493850000000000,"addr":"Відділення №1: вул. Ватутіна, 4","city":"Згурівка"},{"n":"1","lon":33.273900000000000,"lat":48.330400000000000,"addr":"Відділення №1: вул. Литвинова, 19б, (ТРЦ \"Мандарин\")","city":"Петрове"},{"n":"1","lon":32.228050231934000,"lat":48.956946290111000,"addr":"Відділення №1: вул. Леніна, 106","city":"Олександрівка (смт.Кіровог.обл.райц)"},{"n":"1","lon":31.762110000000000,"lat":50.283090000000000,"addr":"Відділення №1: вул. Щорса, 2","city":"Яготин"},{"n":"1","lon":25.364062786102000,"lat":50.783026010669000,"addr":"Відділення №1: вул. Карбишева, 1 (поруч з Адреналін-Сіті)","city":"Луцьк"},{"n":"1","lon":31.649400000000000,"lat":48.792600000000000,"addr":"Відділення №1: вул. Леніна, 108","city":"Новомиргород"},{"n":"1","lon":36.305806000000000,"lat":48.893083000000000,"addr":"Відділення №1: пров. Севастопольський, 2б","city":"Лозова"},{"n":"1","lon":31.429215000000000,"lat":50.068248000000000,"addr":"Відділення: вул. Богдана Хмельницького, 180в","city":"Переяслав-Хмельницький"},{"n":"1","lon":31.629100000000000,"lat":48.650000000000000,"addr":"Відділення №1: вул.  Київська, 9а","city":"Мала Виска"},{"n":"1","lon":29.666566000000000,"lat":49.728660000000000,"addr":"Відідлення: вул. Рози Люксембург, 16","city":"Сквира"},{"n":"1","lon":32.968683242798000,"lat":50.026531798245000,"addr":"Відділення №1: вул. Фабрична, 7","city":"Лубни"},{"n":"1","lon":29.922063000000000,"lat":49.526641000000000,"addr":"Відділення №1: вул. Коцюбинського, 29","city":"Володарка"},{"n":"1","lon":30.816546560791000,"lat":48.664013731965000,"addr":"Відділення № 1: вул. Набережна, 28","city":"Новоархангельськ"},{"n":"1","lon":31.186487000000000,"lat":48.386827000000000,"addr":"Відділення №1: вул. 40 років Жовтня, 34/2","city":"Добровеличківка"},{"n":"1","lon":28.662694000000000,"lat":50.968720000000000,"addr":"Відділення №1: вул. Жовтнева, 72а","city":"Коростень"},{"n":"1","lon":23.480658531189000,"lat":49.346869114210000,"addr":"Відділення №1: вул. Горішня Брама, 183","city":"Дрогобич"},{"n":"1","lon":37.528694000000000,"lat":48.602750000000000,"addr":"Відділення №1: просп. Космонавтів, 50а","city":"Дружківка"},{"n":"1","lon":25.614402000000000,"lat":49.536261000000000,"addr":"Відділення №1: вул. Подільська, 21","city":"Тернопіль"},{"n":"1","lon":28.741370000000000,"lat":50.180590000000000,"addr":"Відділення №1: вул. Авіаційна (ринок)","city":"Озерне"},{"n":"1","lon":37.695771000000000,"lat":47.171607000000000,"addr":"Відділення №1:вул. Челюскінців, 30","city":"Сартана (Донецька обл.)"},{"n":"1","lon":33.866825000000000,"lat":46.456372000000000,"addr":"Відділення № 1: вул. Червоноармійська, 2","city":"Асканія-Нова"},{"n":"1","lon":24.182504000000000,"lat":48.810352000000000,"addr":"Відділення №1: вул. Січових Стрільців, 26","city":"Перегінське"},{"n":"1","lon":25.614842860000000,"lat":49.522046420000000,"addr":"Відділення № 1: вул. Підлісна, 27","city":"Великі Гаї"},{"n":"1","lon":28.675338000000000,"lat":50.202248900000000,"addr":"Відділення №1:  вул. Комуністична, 4","city":"Новогуйвинське"},{"n":"1","lon":31.904440000000000,"lat":48.991240000000000,"addr":"Відділення №1: вул. Леніна, 2","city":"Телепине"},{"n":"1","lon":30.577171000000000,"lat":46.347761000000000,"addr":"Відділення №1: вул. Ленина, 103","city":"Великодолинське"},{"n":"1","lon":33.933447500000000,"lat":51.947453600000000,"addr":"Відділення № 1: вул. Коцюбинського, 1","city":"Свеса"},{"n":"1","lon":30.310047000000000,"lat":47.007518000000000,"addr":"Відділення №1: вул. Генерала Плієва, 29/4","city":"Червонознам'янка"},{"n":"1","lon":35.213657000000000,"lat":47.738812000000000,"addr":"Відділення №1: вул. Урицького, 17","city":"Балабине"},{"n":"1","lon":28.490329000000000,"lat":49.172954000000000,"addr":"Відділення №1: вул. Східна, 1","city":"Лука-Мелешківська"},{"n":"1","lon":30.787079410000000,"lat":50.389383620000000,"addr":"Відділення № 1: вул. Промислова, 1","city":"Проліски"},{"n":"1","lon":33.359800000000000,"lat":48.922500000000000,"addr":"Відділення №1: вул. Леніна, 2а","city":"Павлиш"},{"n":"1","lon":35.256270000000000,"lat":48.807872000000000,"addr":"Відділення №1: вул. Берегового, 46","city":"Губиниха"},{"n":"1","lon":32.867245000000000,"lat":49.595704000000000,"addr":"Відділення №1: вул. Котляревського, 2а","city":"Оболонь (Семенівський р-н)"},{"n":"1","lon":30.896306000000000,"lat":50.484464000000000,"addr":"Відділення № 1: вул. Горького, 2","city":"Требухів"},{"n":"1","lon":31.716043000000000,"lat":49.223268000000000,"addr":"Відділення №1: вул. Леніна, 99","city":"Балаклея (Черкаси)"},{"n":"1","lon":25.722369010000000,"lat":48.158554860000000,"addr":"Відділення №1: вул. Шевченка, 33","city":"Сторожинець"},{"n":"1","lon":35.090584000000000,"lat":48.587913000000000,"addr":"Відділення №1: вул. Партизанська, 60","city":"Підгородне"},{"n":"1","lon":27.676111100000000,"lat":49.075000000000000,"addr":"Відділення: вул. Жовтневої Революції, 14","city":"Бар"},{"n":"1","lon":25.299652300000000,"lat":48.470805500000000,"addr":"Відділення №1: вул. М. Грушевського, 3","city":"Заболотів (Снятинський р-н)"},{"n":"1","lon":24.181388900000000,"lat":48.999444400000000,"addr":"Відділення №1: вул. 22 Січня, 82","city":"Брошнів-Осада"},{"n":"1","lon":24.860534000000000,"lat":50.215027000000000,"addr":"Відділення №1: вул. Центральна, 24а","city":"Лопатин (Львівська обл.)"},{"n":"1","lon":30.311493873596000,"lat":50.784084209343000,"addr":"Відділення №1: вул. Леніна, 12","city":"Димер"},{"n":"1","lon":26.262519000000000,"lat":50.556891000000000,"addr":"Відділення №1: вул. Молодіжна, 2Д","city":"Квасилів (Рівненська обл.)"},{"n":"1","lon":33.948821000000000,"lat":52.044758000000000,"addr":"Відділення №1: вул. Калініна, 12","city":"Дружба (Сумська обл.)"},{"n":"1","lon":34.633791000000000,"lat":50.714053000000000,"addr":"Відділення №1: вул. Лебединська, 65","city":"Ворожба (Лебединський р-н)"},{"n":"1","lon":25.910323000000000,"lat":49.102400000000000,"addr":"Відділення №1: вул. Ринок, 34","city":"Копичинці (Гусятинський р-н)"},{"n":"1","lon":32.951007000000000,"lat":50.938382000000000,"addr":"Відділення № 1: вул. Ватутіна, 5","city":"Дмитрівка (Чернігівська обл.)"},{"n":"1","lon":27.213001000000000,"lat":48.482686000000000,"addr":"Відділення №1: вул. Головна, 37","city":"Романківці"},{"n":"1","lon":22.983442000000000,"lat":48.286527000000000,"addr":"Відділення №1: вул. Мічуріна, 92а","city":"Заріччя(Закарпатська обл.)"},{"n":"1","lon":30.784959000000000,"lat":50.375951000000000,"addr":"Відділення № 1: вул. Перспективна, 2","city":"Щасливе"},{"n":"1","lon":36.368956000000000,"lat":48.114737000000000,"addr":"Відділення № 1: вул. Ворвуля, 12","city":"Просяна (Покровський р-н)"},{"n":"1","lon":22.280398000000000,"lat":48.592764000000000,"addr":"Відділення №1: вул. Патруся Карпатського, 52","city":"Минай"},{"n":"1","lon":23.767733670000000,"lat":48.117361700000000,"addr":"Відділення №1: вул. Миру, 34","city":"Нересниця (Тячівський р-н)"},{"n":"1","lon":26.028820000000000,"lat":50.727539000000000,"addr":"Відділення №1: вул. Нова, 3а","city":"Зоря (Рівненська обл.)"},{"n":"1","lon":34.713514000000000,"lat":49.134884000000000,"addr":"Відділення № 1: вул. Леніна, 100а","city":"Нехвороща"},{"n":"1","lon":30.998219315302000,"lat":48.983098116628000,"addr":"Відділення №1: вул. Леніна, 12","city":"Єрки"},{"n":"1","lon":26.232028000000000,"lat":49.957164000000000,"addr":"Відділення №1: вул. Чернавіна, 42а","city":"Ямпіль (Хмельницький)"},{"n":"1","lon":25.634989000000000,"lat":48.388140000000000,"addr":"Відділення №1: вул. Головна, 28","city":"Неполоківці"},{"n":"1","lon":25.851236000000000,"lat":51.346905000000000,"addr":"Відділення №1: вул. Садова, 103 (ринок \"Копошилка\")","city":"Кузнецовськ"},{"n":"1","lon":26.633587000000000,"lat":50.346694000000000,"addr":"Відділення №1: вул. Висоцького, 3","city":"Нетішин"},{"n":"1","lon":28.307771960000000,"lat":49.182451260000000,"addr":"Відділення №1: вул. Шкільна, 8","city":"Медвеже Вушко"},{"n":"1","lon":32.975367307663000,"lat":46.493177872590000,"addr":"Відділення: вул. Радянська, 12","city":"Великі Копані"},{"n":"1","lon":27.017254000000000,"lat":49.439055000000000,"addr":"Відділення №1: просп. Миру, 99/101","city":"Хмельницький"},{"n":"1","lon":35.399942000000000,"lat":48.619259000000000,"addr":"Відділення № 1: вул. Молодіжна, 26","city":"Меліоративне (Новомосковський р-н)"},{"n":"1","lon":36.098009794950000,"lat":49.960309046978000,"addr":"Відділення №1: вул. Шевченко, 2/82","city":"Пісочин"},{"n":"1","lon":38.166900000000000,"lat":49.581670000000000,"addr":"Відділення №1: вул. Леніна, 81","city":"Нижня Дуванка"},{"n":"1","lon":36.172823309898000,"lat":49.911439180553000,"addr":"Відділення №1: вул. Фрунзе, 7","city":"Покотилівка"},{"n":"1","lon":25.885819000000000,"lat":50.828813000000000,"addr":"Відділення №1: вул. Набережна, 19","city":"Цумань"},{"n":"1","lon":33.736832000000000,"lat":50.361378000000000,"addr":"Відділення № 1: вул. Комуністична, 50","city":"Петрівка-Роменська"},{"n":"1","lon":37.613632000000000,"lat":48.579432000000000,"addr":"Відділення №1: вул. Серго, 16","city":"Олексієво-Дружківка"},{"n":"1","lon":24.139415000000000,"lat":50.721674000000000,"addr":"Відділення №1: вул. Шахтарська, 39б","city":"Нововолинськ"},{"n":"1","lon":35.387408137321000,"lat":46.842511595964000,"addr":"Відділення №1: вул. Дзержинського, 21/1 (адмін. корпус заводу \"Агат\", вул. Леніна, 2)","city":"Мелітополь"},{"n":"1","lon":33.619709014893000,"lat":49.949804699557000,"addr":"Відділення №1: вул. Гоголя, 4","city":"Миргород"},{"n":"1","lon":33.620846271515000,"lat":49.018466054694000,"addr":"Відділення №1: вул. Радянська, 31","city":"Комсомольськ"},{"n":"1","lon":34.658668041229000,"lat":47.642362049252000,"addr":"Відділення №1: вул. Паркова, 8","city":"Марганець"},{"n":"1","lon":33.210913000000000,"lat":51.248985000000000,"addr":"Відділення № 1: вул. Батуринська, 22а","city":"Конотоп"},{"n":"1","lon":37.517074048519000,"lat":47.117387292782000,"addr":"Відділення №1: бульв. Шевченка, 313 ","city":"Маріуполь"},{"n":"1","lon":34.374045170000000,"lat":47.587719710000000,"addr":"Відділення №1: вул. Кооперативна, 5","city":"Нікополь (Дніпропетровська обл.)"},{"n":"1","lon":32.210734000000000,"lat":48.515872000000000,"addr":"Відділення №1: вул. Джерельна, 88а","city":"Кіровоград"},